facilityid,facilitynumber,frsid,latitude,longitude,lloverridden,gridcode,x,y,latlongsource,llyear,llnotes,radialdistance,facilityname,street,city,county,state,zipcode,zip9,fips,stfips,duns,parentduns,parentname,standardizedparentcompany,region,federalfacilityflag,federalagencyname,publiccontactname,publiccontactphone,publiccontactphoneextension,publiccontactemail,stackheight,stackvelocity,stackdiameter,stacktemperature,stackheightsource,stackvelocitysource,stackdiametersource,stacktemperaturesource,stackheightneiyear,stackvelocityneiyear,stackdiameterneiyear,stacktemperatureneiyear,chromhexpercent,chromsource,newindustryflag,modelednaics,naicscode3digit,naicscode4digit,naicscode5digit,naics1,naics2,naics3,naics4,naics5,naics6,sic1,finalreach,finalcomid,reachsource,distancetoreach,hem3id,distancetohem3,llconfirmed,waterreleases,modeledreleases,modchromreleases,,
89414GTCHL28MIN,53967,1.10002E+11,41.217092,-117.243919,0,14,-2164,2741,FRS,2019,,,BARRICK TURQUOISE RIDGE INC,28 MILES NE OF GOLCONDA,GOLCONDA,HUMBOLDT,NV,89414,89414,32013,32,NA,20971710,BARRICK GOLD CORP,BARRICK GOLD CORP,9,C,,DENNIS HOSACK,7757483138,,DHOSACK@BARRICK.COM,2.1,0,1,295.4,Fac Spec,Fac Spec,Fac Spec,Fac Spec,2014,2014,2014,2014,0.03,6DigitNAICS,TRUE,212221,212,2122,21222,212221,,,,,,1041,,11198146,Manual,1482.634295,24128,58455.34621,,TRUE,TRUE,TRUE,,
89414NWMNT35MIL,53969,1.10001E+11,41.253488,-117.167637,0,14,-2155,2744,FRS,2019,,,NEWMONT GOLDCORP TWIN CREEKS MINE,35 MILES NE OF GOLCONDA,GOLCONDA,HUMBOLDT,NV,89414,89414,32013,32,42786921,188373435,NEWMONT GOLDCORP,NEWMONT GOLDCORP,9,C,,LISA BECKER,7757782130,,LISA.BECKER@NEWMONT.COM,9.6,0.2,0.4,365.1,Fac Spec,Fac Spec,Fac Spec,Fac Spec,2014,2014,2014,2014,0.03,6DigitNAICS,TRUE,212221,212,2122,21222,212221,,,,,,1041,1.60401E+13,11198128,Outfall,334.0792181,24128,65988.9487,,TRUE,TRUE,TRUE,,
99737PGMNX38MIL,60924,1.10009E+11,64.449722,-144.939623,0,24,536,2024,FRS,2019,,,POGO MINE,38 MILES NE OF DELTA JUNCTION,DELTA JUNCTION,FAIRBANKS NORTH STAR BORO,AK,99737,99737,2090,2,NA,42414420,SUMITOMO METAL MINING AMERICA INC,SUMITOMO METAL MINING AMERICA INC,10,C,,CHRIS KENNEDY,9078952834,,CHRIS.KENNEDY@SMMPOGO.COM,11.4,12.6,0.9,410.9,Fac Spec,Fac Spec,Fac Spec,Fac Spec,2014,2014,2014,2014,0.03,6DigitNAICS,TRUE,212221,212,2122,21222,212221,,,,,,1041,,,,,26415,63024.88713,,TRUE,TRUE,TRUE,,
89820BTTLMCOPPE,54102,1.10001E+11,40.531164,-117.131496,1,14,-2173,2646,Manual,2015,"Not clear, this looks more plausible than FRS 2016",,NEWMONT GOLDCORP COPPER CANYON FACILITY,12 MI SE OF BATTLE MOUNTAIN COPPER CANYON FACILITY,BATTLE MOUNTAIN,LANDER,NV,89820,89820,32015,32,188373435,188373435,NEWMONT GOLDCORP,NEWMONT GOLDCORP,9,C,,MONICA SILL,7756356640,,MONICA.SILL@NEWMONT.COM,10,0,1,295.4,Fac Spec,Fac Spec,Fac Spec,Fac Spec,2014,2014,2014,2014,0.03,6DigitNAICS,TRUE,212221,212,2122,21222,212221,,,,,,1041,,10713396,,1469.581631,24128,69687.93635,,TRUE,TRUE,TRUE,,
99707FRTKN1FORA,60918,1.10003E+11,64.99953,-147.358107,0,24,386,2082,FRS,2019,,,FORT KNOX MINE,1 FORT KNOX RD,FAIRBANKS,FAIRBANKS NORTH STAR BORO,AK,99712,99712,2090,2,NA,807545777,KINROSS GOLD CORP,KINROSS GOLD CORP,10,C,,BARTLY KLEVEN,9074902207,,BARTLY.KLEVEN@KINROSS.COM,11.4,12.6,0.9,410.9,Fac Spec,Fac Spec,Fac Spec,Fac Spec,2014,2014,2014,2014,0.03,6DigitNAICS,TRUE,212221,212,2122,21222,212221,,,,,,1041,,,,,26411,31428.66994,,,TRUE,TRUE,,
99801KNNCT13401,60934,1.10033E+11,58.081802,-134.641206,0,24,1386,1312,FRS,2019,,,HECLA GREENS CREEK MINING CO,13401 GLACIER HWY,JUNEAU,JUNEAU BOROUGH,AK,99801,99801,2110,2,841026255,6927610,HECLA MINING CO,HECLA MINING CO,10,C,,CHRISTOPHER WALLACE,9077908473,,CWALLACE@HECLA-MINING.COM,9.9,39.6,0.5,641.5,Fac Spec,Fac Spec,Fac Spec,Fac Spec,2014,2014,2014,2014,0.34,Default,TRUE,212230,212,2122,21223,212230,212221,212222,,,,1031,,,,,25309,31895.11664,,TRUE,TRUE,TRUE,,
85539BHPCPHWY60,53392,1.10008E+11,33.417445,-110.98421,0,14,-1702,1554,FRS,2019,,,PINTO VALLEY MINE,2911 N FOREST SERVICE RD 287,MIAMI,GILA,AZ,85539,85539,4007,4,NA,,NA,NA,9,C,,COLLEEN ROCHE,9284736414,,CROCHE@PINTOVALLEYMINE.COM,16.5,7.8,0.8,310.9,Fac Spec,Fac Spec,Fac Spec,Fac Spec,2014,2014,2014,2014,0.34,Default,TRUE,212230,212,2122,21223,212230,,,,,,1021,,22444060,,36.4052399,3192,88813.70599,,,TRUE,TRUE,,
84006KNNCT12300,52291,1.1E+11,40.516667,-112.15,1,14,-1667,2543,Manual,2016,Confirmed on map,,KENNECOTT UTAH COPPER MINE CONCENTRATORS & POWER PLANT,8362 WEST 10200 SOUTH,BINGHAM CANYON,SALT LAKE,UT,84006,84006,49035,49,619968779,NA,RIO TINTO AMERICA INC,RIO TINTO AMERICA INC,8,C,,KYLE BENNETT,8012042915,,KYLE.BENNETT@RIOTINTO.COM,10,9.3,0.7,310.4,Fac Spec,Fac Spec,Fac Spec,Fac Spec,2014,2014,2014,2014,0.34,Default,TRUE,212230,212,2122,21223,212230,221112,,,,,1021,1.60203E+13,10395313,Manual,1779.892685,24127,34084.10951,,TRUE,TRUE,TRUE,,
37040SVGZN1800Z,22012,1.10057E+11,36.518385,-87.402918,0,14,940,1890,FRS,2019,,,NYRSTAR CLARKSVILLE INC,1800 ZINC PLANT RD,CLARKSVILLE,MONTGOMERY,TN,37040,37040,47125,47,131058178,NA,NYRSTAR US INC,NYRSTAR US INC,4,C,,KEVIN COOK,9315524200,3315,KEVIN.COOK@NYRSTAR.COM,18.3,12.1,0.9,314,Fac Spec,Fac Spec,Fac Spec,Fac Spec,2014,2014,2014,2014,0.34,Default,TRUE,212230,212,2122,21223,212230,,,,,,1031,5.13021E+12,11881326,Outfall,115.9227777,13897,78436.53565,,TRUE,TRUE,,,
84624BRSHW10MIL,52708,1.10008E+11,39.467866,-112.436954,1,14,-1721,2405,Manual,2019,,,MATERION NATURAL RESOURCES INC MILL,10 MILES N HWY 6,DELTA,MILLARD,UT,84624,84624,49027,49,57195398,622913080,MATERION CORP,MATERION CORP,8,C,,THOMAS HENRIE,4358641234,,THOMAS.HENRIE@MATERION.COM,12.5,3.4,0.9,474.8,Fac Spec,Fac Spec,Fac Spec,Fac Spec,2014,2014,2014,2014,0.34,Default,TRUE,212299,212,2122,21229,212299,,,,,,1099,,1200162,,1787.534353,23176,124612.5983,,,TRUE,,,
7759WBLNCH2415T,49993,1.10028E+11,29.379167,-94.929167,0,14,128,866,FRS,2019,,,BLANCHARD REFINING CO LLC,2401 5TH AVE S,TEXAS CITY,GALVESTON,TX,77590,77590,48167,48,78697862,968393996,MARATHON PETROLEUM CORP,MARATHON PETROLEUM CORP,6,C,,LAVELLE EDMONDSON,4099437304,,LEDMONDSON@MARATHONPETROLEUM.COM,76.2,3.3,2.9,713.7,Fac Spec,Fac Spec,Fac Spec,Fac Spec,2014,2014,2014,2014,0.18,6DigitNAICS,TRUE,221112,221,2211,22111,221112,324110,,,,,,-1,-1,Manual,1877.94187,12923,14356.96823,,TRUE,TRUE,TRUE,,
28461CGNTR1281C,15054,1.10044E+11,33.94303,-78.009397,0,14,2026,1684,FRS,2019,,,CPI USA NORTH CAROLINA LLC,1281 POWERHOUSE DR,SOUTHPORT,BRUNSWICK,NC,28461,28461,37019,37,839411894,,NA,CPI USA NORTH CAROLINA LLC,4,C,,FRANK HAYWARD,9103436700,,FHAYWARD@CAPITALPOWER.COM,60.4,18.3,2.6,430.4,Fac Spec,Fac Spec,Fac Spec,Fac Spec,2014,2014,2014,2014,0.18,6DigitNAICS,TRUE,221112,221,2211,22111,221112,221117,,,,,4911,,8835724,,549.7428308,13748,37405.33539,,TRUE,TRUE,TRUE,,
07077PBLCS751CL,4490,1.10001E+11,40.558706,-74.248086,0,14,2235,2664,FRS,2019,,,SEWAREN GENERATING STATION,751 CLIFF RD,SEWAREN,MIDDLESEX,NJ,7077,7077,34023,34,66686258,160945242,PUBLIC SERVICE ENTERPRISE GROUP,PUBLIC SERVICE ENTERPRISE GROUP,2,C,,IRENE MULDOWNEY,7327501958,,IRENE.MULDOWNEY@PSEG.COM,68.6,15.4,3.8,408.1,Fac Spec,Fac Spec,Fac Spec,Fac Spec,2014,2014,2014,2014,0.18,6DigitNAICS,TRUE,221112,221,2211,22111,221112,,,,,,4911,,6261572,,3.072125974,14734,17136.63563,,TRUE,TRUE,,,
17976STNCHHWY54,9749,1.10007E+11,40.822464,-76.17337,0,14,2033,2656,FRS,2019,,,SAINT NICHOLAS COGENERATION PROJECT,HWY 54 E TWP RT 851,SHENANDOAH,SCHUYLKILL,PA,17976,17976,42107,42,154309306,,NA,NA,3,C,,ALEXANDER  BRUSH,5704622822,,ABRUSH@CULM2ENERGY.COM,94.5,25.4,3.4,458.1,Fac Spec,Fac Spec,Fac Spec,Fac Spec,2014,2014,2014,2014,0.18,6DigitNAICS,TRUE,221112,221,2211,22111,221112,,,,,,4911,,4517542,,434.8003832,14712,53154.27741,,,TRUE,TRUE,,
59323RSBDPPOBOX,38633,1.10042E+11,45.97549,-106.65532,0,14,-1019,3210,FRS,2019,,,COLSTRIP ENERGY LP ROSEBUD POWER PLANT,18 SNIDER SUBDIVISION RD,COLSTRIP,ROSEBUD,MT,59323,59323,30087,30,NA,782465595,COLSTRIP ENERGY LP,COLSTRIP ENERGY LP,8,C,,SCOTT SIDDOWAY,2083443570,,SCOTT.SIDDOWAY@ROSI-BOISE.COM,68.6,19.7,3.1,448.1,Fac Spec,Fac Spec,Fac Spec,Fac Spec,2014,2014,2014,2014,0.18,6DigitNAICS,TRUE,221112,221,2211,22111,221112,,,,,,4911,,13262549,,424.5398143,24029,136565.1585,,,TRUE,TRUE,,
84528PCFCR10MIL,52685,1.1002E+11,39.38149,-111.079394,0,14,-1582,2370,FRS,2019,,,PACIFICORP ENERGY-HUNTINGTON PLANT,10 MILES W OF HUNTINGTON,HUNTINGTON,EMERY,UT,84528,84528,49015,49,7909013,7909013,BERKSHIRE HATHAWAY INC,BERKSHIRE HATHAWAY INC,8,C,,DAVE ESKELSEN,8012202447,,DAVID.ESKELSEN@ROCKYMOUNTAINPOWER.NET,182.9,12.6,7.3,318.7,Fac Spec,Fac Spec,Fac Spec,Fac Spec,2014,2014,2014,2014,0.18,6DigitNAICS,TRUE,221112,221,2211,22111,221112,,,,,,4911,1.406E+13,4876441,Outfall,36.74537884,93141,33617.82516,,TRUE,TRUE,TRUE,,
33004FLRDPGRIFF,19519,1.10002E+11,26.0705,-80.1974,0,14,1960,578,FRS,2019,,,FPL-LAUDERDALE POWER PLANT,4300 SW 42ND ST,FORT LAUDERDALE,BROWARD,FL,33314,33314,12011,12,6922371,6922371,NEXTERA ENERGY INC,NEXTERA ENERGY INC,4,C,,CHRISTIAN KIERNAN,5616912781,,CHRISTIAN.KIERNAN@FPL.COM,45.7,48.4,5.5,438.7,Fac Spec,Fac Spec,Fac Spec,Fac Spec,2014,2014,2014,2014,0.18,6DigitNAICS,TRUE,221112,221,2211,22111,221112,,,,,,4911,,79368,,343.6226582,12849,4338.018097,,TRUE,TRUE,,,
45620MRCNL7397N,28894,1.10044E+11,38.9347,-82.1158,0,14,1467,2290,FRS,2019,,,GAVIN POWER LLC,7397 N STATE RT 7,CHESHIRE,GALLIA,OH,45620,45620,39053,39,81259544,NA,LIGHTSTONE GENERATION LLC,LIGHTSTONE GENERATION LLC,5,C,,TAYLOR HUFFMAN,7409253171,,TAYLOR.HUFFMAN@LIGHTSTONEGEN.COM,253,8,12.8,324,Fac Spec,Fac Spec,Fac Spec,Fac Spec,2014,2014,2014,2014,0.18,6DigitNAICS,TRUE,221112,221,2211,22111,221112,,,,,,4911,,19443465,,441.1224277,3860,73528.71302,,TRUE,TRUE,TRUE,,
43811MRCNL47201,26291,1.10001E+11,40.185978,-81.878554,0,14,1466,2464,FRS,2019,,,AMERICAN ELECTRIC POWER CONESVILLE PLANT,47201 COUNTY RD 273,CONESVILLE,COSHOCTON,OH,43811,43811,39031,39,69068450,6979868,AMERICAN ELECTRIC POWER,AMERICAN ELECTRIC POWER,5,C,,REX GREEN,7408294065,,RWGREEN1@AEPES.COM,243.8,20,8.9,370.6,Fac Spec,Fac Spec,Fac Spec,Fac Spec,2014,2014,2014,2014,0.18,6DigitNAICS,TRUE,221112,221,2211,22111,221112,,,,,,4911,,15379411,,462.8837374,93824,26930.98587,,TRUE,TRUE,TRUE,,
41056SPRLCRTE8X,25047,1.10012E+11,38.700097,-83.817506,0,14,1292,2233,FRS,2019,,,SPURLOCK POWER STATION,1301 WEST SECOND STREET,MAYSVILLE,MASON,KY,41056,41056,21161,21,72865272,7779416,EAST KENTUCKY POWER COOPERATIVE INC,EAST KENTUCKY POWER COOPERATIVE INC,4,C,,NICK COMER,8597444812,,NICK.COMER@EKPC.COOP,245.4,32.6,4.6,424.3,Fac Spec,Fac Spec,Fac Spec,Fac Spec,2014,2014,2014,2014,0.18,6DigitNAICS,TRUE,221112,221,2211,22111,221112,,,,,,4911,,1928516,,432.5396045,93812,68675.06876,,TRUE,TRUE,TRUE,,
52404DMCRN1350W,34630,1.10011E+11,41.928594,-91.687203,0,14,438,2606,FRS,2019,,,ADM CORN PROCESSING,1350 WACONIA AVE SW,CEDAR RAPIDS,LINN,IA,52404,524044322,19113,19,96525670,1307586,ARCHER DANIELS MIDLAND CO,ARCHER DANIELS MIDLAND CO,7,C,,MEDIA  RELATIONS,2174245413,,MEDIA@ADM.COM,37.5,19,0.8,324.8,Fac Spec,Fac Spec,Fac Spec,Fac Spec,2014,2014,2014,2014,0.34,Default,,311221,311,3112,31122,311221,221112,325199,,,,2046,7.08021E+12,22477519,Outfall,70.81981539,14937,34975.78702,,TRUE,TRUE,TRUE,,
60501CRNPR6400A,39944,1.10017E+11,41.77361,-87.82322,0,14,832,2611,FRS,2019,,,INGREDION INC ARGO PLANT,6400 S ARCHER AVE,BEDFORD PARK,COOK,IL,60501,60501,17031,17,43581532,4811423,INGREDION INC,INGREDION INC,5,C,,BECCA HARY,7085512602,,BECCA.HAR@INGREDION.COM,28,15,1.1,349.8,Fac Spec,Fac Spec,Fac Spec,Fac Spec,2014,2014,2014,2014,0.34,Default,,311221,311,3112,31122,311221,311225,,,,,2046,7.12E+12,14786191,Outfall,170.9189434,14819,6064.071095,,TRUE,TRUE,,,
37774STLYMROUTE,22830,1.1E+11,35.734503,-84.32137,0,14,1289,1819,FRS,2019,,,TATE & LYLE LOUDON,198 BLAIR BEND DR,LOUDON,LOUDON,TN,37774,37774,47105,47,49016843,122320559,TATE & LYLE INGREDIENTS AMERICAS LLC,TATE & LYLE INGREDIENTS AMERICAS LLC,4,C,,EDWIN H HAMMANN,8654585681,,ED.HAMMANN@TATEANDLYLE.COM,50.3,14.7,2.4,417,Fac Spec,Fac Spec,Fac Spec,Fac Spec,2014,2014,2014,2014,0.34,Default,,311221,311,3112,31122,311221,,,,,,2046,,22134309,,544.2838974,13891,31647.22439,,TRUE,TRUE,,,
47905STLYM3300U,31506,1.10001E+11,40.376319,-86.843695,0,14,950,2427,FRS,2019,,,TATE & LYLE LAFAYETTE SOUTH,3300 US 52 S,LAFAYETTE,TIPPECANOE,IN,47905,47905,18157,18,40286080,40286080,TATE & LYLE INGREDIENTS AMERICAS LLC,TATE & LYLE INGREDIENTS AMERICAS LLC,5,C,,TRAVIS MONTOYA,7654775242,,TRAVIS.MONTOYA@TATEANDLYLE.COM,76.2,14.2,3.7,338.7,Fac Spec,Fac Spec,Fac Spec,Fac Spec,2014,2014,2014,2014,0.34,Default,,311221,311,3112,31122,311221,,,,,,2046,,10204893,,3806.074209,14835,8841.808587,,TRUE,TRUE,,,
68008CRGLL650IN,44015,1.1006E+11,41.520412,-96.079271,0,14,-8,2540,FRS,2019,,,CARGILL CORN MILLING NORTH AMERICA,650 INDUSTRIAL PARK DRIVE,BLAIR,WASHINGTON,NE,68008,680082649,31177,31,836108845,6248189,CARGILL INC,CARGILL INC,7,C,,CHRISTY VENNE,4025331493,,CHRISTY_VENNE@CARGILL.COM,30.6,0.4,1.5,432.7,Fac Spec,Fac Spec,Fac Spec,Fac Spec,2014,2014,2014,2014,0.34,Default,,311221,311,3112,31122,311221,325199,325211,,,,2046,,17215844,,347.8279219,94978,28300.89892,,TRUE,TRUE,,,
38113CRGLL2330B,23247,1.1E+11,35.081763,-90.13394,0,14,654,1670,FRS,2019,,,CARGILL INC,2330 BUOY ST,MEMPHIS,SHELBY,TN,38113,38113,47157,47,6249189,6249189,CARGILL INC,CARGILL INC,4,C,,ERIC HAFNER,9017754930,,ERIC_HAFNER@CARGILL.COM,55.6,4.6,1.5,295.4,Fac Spec,Fac Spec,Fac Spec,Fac Spec,2014,2014,2014,2014,0.34,Default,,311221,311,3112,31122,311221,,,,,,2046,,7474836,,401.5584696,53959,10857.5915,,,TRUE,,,
52406PNFRD1001F,34661,1.1E+11,41.96867,-91.66646,0,14,440,2612,FRS,2019,,,INGREDION INC,1001 FIRST ST SW,CEDAR RAPIDS,LINN,IA,52404,52404,19113,19,38137094,4811423,INGREDION INC,INGREDION INC,7,C,,ROXANNE SIMON,3193983700,,ROXIE.SIMON@INGREDION.COM,25.8,12.6,1.3,334.5,Fac Spec,Fac Spec,Fac Spec,Fac Spec,2014,2014,2014,2014,0.34,Default,,311221,311,3112,31122,311221,325193,,,,,2046,,22477695,,250.7769014,14937,38702.26011,,TRUE,TRUE,,,
56716MRCNCHIGHW,38208,1.10001E+11,47.764444,-96.6325,0,14,-59,3398,FRS,2019,,,AMERICAN CRYSTAL SUGAR CO,HWY 75 S,CROOKSTON,POLK,MN,56716,56716,27119,27,6174742,64792773,AMERICAN CRYSTAL SUGAR CO,AMERICAN CRYSTAL SUGAR CO,5,C,,RYAN WALL,2182810142,,RWALL@CRYSTALSUGAR.COM,42.7,32.7,1.4,388.7,Fac Spec,Fac Spec,Fac Spec,Fac Spec,2014,2014,2014,2014,0.12,6DigitNAICS,,311313,311,3113,31131,311313,,,,,,2063,9.0203E+12,7040857,Outfall,16.40866126,14916,45447.53042,,TRUE,TRUE,,,
56560MRCNC2500N,38181,1.1E+11,46.903056,-96.759722,0,14,-72,3280,FRS,2019,,,AMERICAN CRYSTAL SUGAR CO,2500 N 11TH ST,MOORHEAD,CLAY,MN,56560,56560,27027,27,134487818,64792773,AMERICAN CRYSTAL SUGAR CO,AMERICAN CRYSTAL SUGAR CO,5,C,,RANDY AXTMAN,2182915431,,RAXTMAN@CRYSTALSUGAR.COM,45.7,24.6,1.5,483.1,Fac Spec,Fac Spec,Fac Spec,Fac Spec,2014,2014,2014,2014,0.12,6DigitNAICS,,311313,311,3113,31131,311313,,,,,,2063,9.0201E+12,6667867,Outfall,92.08720809,14914,3078.900124,,TRUE,TRUE,,,
33430SGRCNAIRPO,19830,1.10001E+11,26.708333,-80.65,0,14,1891,654,FRS,2019,,,SUGAR CANE GROWERS COOPERATIVE OF FLORIDA,1500 GEORGE WEDGWORTH WAY,BELLE GLADE,PALM BEACH,FL,33430,33430,12099,12,NA,,NA,NA,4,C,,DAVID GOODLETT,5619965556,775,DGOODLETT@SCGC.ORG,46.5,15.2,2.1,340.9,Fac Spec,Fac Spec,Fac Spec,Fac Spec,2014,2014,2014,2014,0.34,Default,,311314,311,3113,31131,311314,,,,,,2061,,16742603,,5589.855039,12844,53024.08377,,,TRUE,,,
71740WLLMTHIGHW,45435,1.10002E+11,33.0435,-93.1725,0,14,324,1373,FRS,2019,,,WEYERHAEUSER NR CO-EMERSON PLYWOOD,101 COLUMBIA 14 W,EMERSON,COLUMBIA,AR,71740,71740,5027,5,NA,828789524,WEYERHAEUSER CO,WEYERHAEUSER CO,6,C,,LARRY HUNTSBERGER,8703930004,,LARRY.HUNTSBERGER@WEYERHAEUSER.COM,13.7,14.3,1.2,477.6,Fac Spec,Fac Spec,Fac Spec,Fac Spec,2014,2014,2014,2014,0.34,Default,,321212,321,3212,32121,321212,,,,,,2436,,19934405,,681.1795971,93992,38860.3848,,,TRUE,,,
83861STMRSMILLR,52281,1.1E+11,47.323441,-116.586195,0,14,-1917,3546,FRS,2019,,,POTLATCHDELTIC LAND & LUMBER LLC ST MARIES COMPLEX,2200 RAILROAD AVE,SAINT MARIES,BENEWAH,ID,83861,83861,16009,16,NA,9448200,POTLATCHDELTIC CORP,POTLATCHDELTIC CORP,10,C,,JACOB ODEKIRK,2082457503,,JACOB.ODEKIRK@POTLATCHDELTIC.COM,7.2,2.3,0.6,355.4,Fac Spec,Fac Spec,Fac Spec,Fac Spec,2014,2014,2014,2014,0.34,Default,,321212,321,3212,32121,321212,321113,321912,,,,2436,,23003855,,128.5557445,94176,68094.05927,,,TRUE,,,
97469RSBRGCOWCR,59739,1.10061E+11,42.9443,-123.3759,0,14,-2705,3129,FRS,2019,,,ROSEBURG FOREST PRODUCTS CO - RIDDLE PLYWOOD #4,3064 RIDDLE BY PASS ROAD,RIDDLE,DOUGLAS,OR,97469,97469,41019,41,617842612,NA,ROSEBURG FOREST PRODUCTS,ROSEBURG FOREST PRODUCTS,10,C,,AMANDA ORTH,5416586107,,AMANDAO@RFPCO.COM,26.6,12.3,1.5,383.7,Fac Spec,Fac Spec,Fac Spec,Fac Spec,2014,2014,2014,2014,0.34,Default,,321212,321,3212,32121,321212,,,,,,2436,,23901087,,761.0280815,24231,32836.49161,,,TRUE,,,
97469RSBRGCWCRE,59740,1.10009E+11,42.9331,-123.4005,0,14,-2708,3128,FRS,2019,,,ROSEBURG FOREST PRODUCTS CO-EWP FACILITY,4500 RIDDLE BYPASS RD,RIDDLE,DOUGLAS,OR,97469,97469,41019,41,108034802,NA,ROSEBURG FOREST PRODUCTS,ROSEBURG FOREST PRODUCTS,10,C,,AMANDA ORTH,5416586107,,AMANDAO@RFPCO.COM,12.6,12,1.3,317.3,Fac Spec,Fac Spec,Fac Spec,Fac Spec,2014,2014,2014,2014,0.34,Default,,321213,321,3212,32121,321213,,,,,,2439,,23902567,,315.5797361,24231,34260.7851,,,TRUE,,,
71742GRGPC1GEOR,45436,1.10013E+11,33.7646,-92.3672,0,14,412,1475,FRS,2019,,,GEORGIA-PACIFIC WOOD PRODUCTS LLC - FORDYCE OSB,1 GEORGIA-PACIFIC DR,FORDYCE,CALHOUN,AR,71742,71742,5013,5,NA,6944334,KOCH INDUSTRIES INC,KOCH INDUSTRIES INC,6,C,,RICK KIMBLE,4046524654,,JOHN.KIMBLE@GAPAC.COM,22.9,14.4,0.9,316.2,Fac Spec,Fac Spec,Fac Spec,Fac Spec,2014,2014,2014,2014,0.34,Default,,321219,321,3212,32121,321219,,,,,,2493,,21950714,,317.5001324,53919,58715.50233,,,TRUE,,,
59802LSNPC3300R,38680,1.1E+11,46.8982,-114.02779,0,14,-1693,3441,FRS,2019,,,ROSEBURG FOREST PRODUCTS CO - MISSOULA PARTICLEBOARD,3300 RASER RD,MISSOULA,MISSOULA,MT,59808,59808,30063,30,60260486,NA,ROSEBURG FOREST PRODUCTS,ROSEBURG FOREST PRODUCTS,8,C,,AMANDA ORTH,5416586107,,AMANDAO@RFPCO.COM,17,12.3,1.2,354.3,Fac Spec,Fac Spec,Fac Spec,Fac Spec,2014,2014,2014,2014,0.34,Default,,321219,321,3212,32121,321219,,,,,,2493,1.70102E+13,24324178,Outfall,718.471868,24153,4686.169655,,TRUE,TRUE,,,
24539JMHBRRT3HW,12725,1.1E+11,36.8328,-78.9202,0,14,1853,2058,FRS,2019,,,HUBER ENGINEERED WOODS LLC,1000 CHANEY LN,CRYSTAL HILL,HALIFAX,VA,24539,24539,51083,51,NA,2254459,J M HUBER CORP,J M HUBER CORP,3,C,,JEREMY CATRON,4344763528,,JEREMY.CATRON@HUBER.COM,4.3,28.7,1.2,299.8,Fac Spec,Fac Spec,Fac Spec,Fac Spec,2014,2014,2014,2014,0.34,Default,,321219,321,3212,32121,321219,,,,,,2493,,8710549,,633.8100603,13728,46995.78116,,TRUE,TRUE,,,
97321FLKBR255LD,59601,1.1E+11,44.662106,-123.066337,0,14,-2609,3347,FRS,2019,,,ARAUCO NA INC - DURAFLAKE PARTICLEBOARD,2550 OLD SALEM RD NE,ALBANY,LINN,OR,97321,97321,41043,41,91899778,783169753,ARAUCO N.A. INC.,ARAUCO NORTH AMERICA INC,10,C,,JASON YOUNG,5419176222,,JASON.YOUNG@ARAUCO-NA.COM,15.2,14.9,1.2,327,Fac Spec,Fac Spec,Fac Spec,Fac Spec,2014,2014,2014,2014,0.34,Default,,321219,321,3212,32121,321219,221330,,,,,2493,,23764535,,156.8480901,24232,28822.25337,,TRUE,TRUE,,,
59912PLMCRPOBOX,38696,1.1E+11,48.37339,-114.19732,0,14,-1670,3641,FRS,2019,,,WEYERHAEUSER NR,105 MILLS DR,COLUMBIA FALLS,FLATHEAD,MT,59912,59912,30029,30,828789524,1306992,WEYERHAEUSER CO,WEYERHAEUSER CO,8,C,,MITCHELL LEU,4068926217,,MITCHELL.LEU@WEYERHAEUSER.COM,18.3,12.7,1.2,354.3,Fac Spec,Fac Spec,Fac Spec,Fac Spec,2014,2014,2014,2014,0.34,Default,,321219,321,3212,32121,321219,,,,,,2493,,947010306,,1597.311016,24146,9650.023762,,,TRUE,,,
72104WLLMTROUTE,45620,1.10001E+11,34.383511,-92.725445,0,14,369,1559,FRS,2019,,,ARAUCO,1275 WILLAMETTE RD,MALVERN,HOT SPRING,AR,72104,72104,5059,5,NA,783169753,ARAUCO N.A. INC.,ARAUCO NORTH AMERICA INC,6,C,,EUGENE JAMISON,5013327893,,EUGENE.JAMISON@ARAUCO-NA.COM,9.8,8.6,1.8,310.9,Fac Spec,Fac Spec,Fac Spec,Fac Spec,2014,2014,2014,2014,0.34,Default,,321219,321,3212,32121,321219,,,,,,2493,,21924299,,108.8837135,3962,35572.27282,,,TRUE,,,
28669BTBPRHWY26,15349,1.10008E+11,36.1986,-81.0356,0,14,1639,1933,FRS,2019,,,LOUISIANA-PACIFIC CORP,1068 ABTCO RD,NORTH WILKESBORO,WILKES,NC,28659,28659,37193,37,48185151,61500534,LOUISIANA PACIFIC CORP,LOUISIANA PACIFIC CORP,4,C,,SCOTT CRANSTON,3366963483,,SCOTT.CRANSTON@LPCORP.COM,25.1,8.7,2,315.4,Fac Spec,Fac Spec,Fac Spec,Fac Spec,2014,2014,2014,2014,0.34,Default,,321219,321,3212,32121,321219,,,,,,2493,,9250726,,416.4953527,3810,60051.85542,,TRUE,TRUE,,,
31064GRGPCHIGHW,18294,1.10006E+11,33.275,-83.70527,0,14,1401,1491,FRS,2019,,,GEORGIA-PACIFIC WOOD PRODUCTS LLC - MONTICELLO MDF PLANT,791 GEORGIA PACIFIC RD,MONTICELLO,JASPER,GA,31064,31064,13159,13,119206084,6944334,KOCH INDUSTRIES INC,KOCH INDUSTRIES INC,4,C,,RICK KIMBLE,4046524654,,JOHN.KIMBLE@GAPAC.COM,9.4,3.4,0.7,438.7,Fac Spec,Fac Spec,Fac Spec,Fac Spec,2014,2014,2014,2014,0.34,Default,,321219,321,3212,32121,321219,,,,,,2436,,1056535,,372.5073238,3813,64144.41391,,,TRUE,,,
71275WLLMT130GI,45250,1.1E+11,32.540274,-92.873435,0,14,360,1305,FRS,2019,,,WEYERHAEUSER NR - ARCADIA OSB,130 GIRL SCOUT RD,SIMSBORO,LINCOLN PARISH,LA,71275,71275,22061,22,1306692,828789524,WEYERHAEUSER CO,WEYERHAEUSER CO,6,C,,MICHAEL NOLAN,3182439358,,MICHAEL.NOLAN@WEYERHAEUSER.COM,14.5,16,1.8,324.5,Fac Spec,Fac Spec,Fac Spec,Fac Spec,2014,2014,2014,2014,0.34,Default,,321219,321,3212,32121,321219,,,,,,2493,,15215473,,1085.705455,93992,75903.19878,,,TRUE,,,
55003NDRSNFOOTO,36939,1.1E+11,45.02143,-92.77611,0,14,313,3028,FRS,2019,,,ANDERSEN CORP,100 4TH AVE N,BAYPORT,WASHINGTON,MN,55003,55003,27163,27,6167332,NA,ANDERSEN CORP,ANDERSEN CORP,5,C,,ELIZA CHLEBECK,6512645978,,ELIZA.CHLEBECK@ANDERSENCORP.COM,12.8,7.6,0.5,294.3,Fac Spec,Fac Spec,Fac Spec,Fac Spec,2014,2014,2014,2014,0.34,Default,,321911,321,3219,32191,321911,,,,,,2431,,2649096,,324.1798587,14927,23680.23787,,,TRUE,TRUE,,
18848MSNTCMASON,10107,1.10001E+11,41.76242,-76.42046,0,14,1981,2778,FRS,2019,,,JELD-WEN INC FIBER DIV - PA,825 SHINER RD,WYSOX,BRADFORD,PA,18854,18854,42015,42,9040288,9040288,JELD-WEN INC,JELD-WEN INC,3,C,,LANCE STEVENS,5702688737,,LSTEVENS@JELDWEN.COM,15.2,11.6,0.9,302.6,Fac Spec,Fac Spec,Fac Spec,Fac Spec,2014,2014,2014,2014,0.34,Default,,321219,321,3212,32121,321219,,,,,,2493,,4197854,,659.2654569,14748,58861.93923,,TRUE,TRUE,,,
27306HMNTS149HO,13615,1.10023E+11,35.251428,-79.974688,0,14,1777,1823,FRS,2019,,,UNILIN US MDF,149 HOMANIT USA RD,MOUNT GILEAD,MONTGOMERY,NC,27306,27306,37123,37,158254115,612757070,MOHAWK INDUSTRIES INC,MOHAWK INDUSTRIES INC,4,C,,REBECCA BOLDEN,7062724934,24934,REBECCA_BOLDEN@MOHAWKIND.COM,27.4,14.6,2.7,338.7,Fac Spec,Fac Spec,Fac Spec,Fac Spec,2014,2014,2014,2014,0.34,Default,,321219,321,3212,32121,321219,,,,,,2493,,9211220,,434.961892,53872,64293.99813,,,TRUE,TRUE,,
30529JMHBRPOBOX,17797,1.10001E+11,34.16463,-83.42299,0,14,1417,1617,FRS,2019,,,HUBER ENGINEERED WOODS LLC,1442 HWY 334,COMMERCE,JACKSON,GA,30529,30529,13157,13,151294696,2554459,JM HUBER CORP,J M HUBER CORP,4,C,,EDDIE CARTEE,7063363105,,EDDIE.CARTEE@HUBER.COM,9.4,12.8,1.6,377.6,Fac Spec,Fac Spec,Fac Spec,Fac Spec,2014,2014,2014,2014,0.34,Default,,321219,321,3212,32121,321219,,,,,,2493,,1047399,,242.435686,13873,25659.96632,,,TRUE,,,
3542WWSTRV6777H,21054,1.10045E+11,33.085746,-88.22306,0,14,890,1410,FRS,2019,,,WESTERVELT PELLETS I,6777 HWY 17,ALICEVILLE,PICKENS,AL,35442,35442,1107,1,NA,4000907,THE WESTERVELT CO INC,THE WESTERVELT CO INC,4,C,,LANCE MCCRAY,2055625258,,LMCCRAY@WESTERVELT.COM,4.6,11.4,0.9,293.1,Fac Spec,Fac Spec,Fac Spec,Fac Spec,2014,2014,2014,2014,0.34,Default,,321999,321,3219,32199,321999,,,,,,,3.16011E+12,18630902,Outfall,30.02178615,93806,58233.53081,,TRUE,TRUE,,,
39462LFRVRHWY29,24275,1.10057E+11,31.244429,-89.045353,0,14,814,1150,FRS,2019,,,GEORGIA PACIFIC LEAF RIVER CELLULOSE LLC,HWY 29 BUCK CREEK RD,NEW AUGUSTA,PERRY,MS,39462,394620329,28111,28,784496283,6944334,KOCH INDUSTRIES INC,KOCH INDUSTRIES INC,4,C,,JANA BRYANT,6019647182,,JANA.BRYANT@GAPAC.COM,91.4,15.9,2.3,397.9,Fac Spec,Fac Spec,Fac Spec,Fac Spec,2014,2014,2014,2014,0.34,Default,,322110,322,3221,32211,322110,,,,,,2611,3.17001E+12,18135600,Outfall,334.0323742,13833,19870.37417,,TRUE,TRUE,,,
32347BCKYCROUTE,19056,1.10057E+11,30.068694,-83.52375,0,14,1479,1056,FRS,2019,,,FOLEY CELLULOSE LLC,1 BUCKEYE DR,PERRY,TAYLOR,FL,32348,32348,12123,12,35699146,6944334,KOCH INDUSTRIES INC,KOCH INDUSTRIES INC,4,C,,SCOTT MIXON,8505841275,,SCOTT.MIXON@GAPAC.COM,59,9.8,2.1,347,Fac Spec,Fac Spec,Fac Spec,Fac Spec,2014,2014,2014,2014,0.34,Default,,322110,322,3221,32211,322110,,,,,,2611,3.1101E+12,1978426,Outfall,26.52666787,93845,82875.66181,,TRUE,TRUE,,,
54494CNSLD950FO,36511,1.10017E+11,44.404,-89.8255,0,14,605,2957,FRS,2019,,,WISCONSIN RAPIDS PULP MILL,950 4TH AVE N,WISCONSIN RAPIDS,WOOD,WI,54495,54495,55141,55,122851459,826480902,VERSO CORP,VERSO CORP,5,C,,PHIL HARTLEY,7154224023,,PHIL.HARTLEY@VERSOCO.COM,11.9,4.4,0.7,325.8,Fac Spec,Fac Spec,Fac Spec,Fac Spec,2014,2014,2014,2014,0.34,Default,,322110,322,3221,32211,322110,,,,,,2611,,14705174,,373.6283307,4826,5086.536899,,TRUE,TRUE,,,
23851NNCMPHIGHW,12292,1.10001E+11,36.678218,-76.912272,0,14,2072,2079,FRS,2019,,,INTERNATIONAL PAPER FRANKLIN MILL,34040 UNION CAMP DR,FRANKLIN,ISLE OF WIGHT,VA,23851,23851,51093,51,1316561,1316561,INTERNATIONAL PAPER CO,INTERNATIONAL PAPER CO,3,C,,JENNY DIXON,7575694709,,JENNIFER.RAILEY@IPAPER.COM,62.8,5.3,3.3,428.1,Fac Spec,Fac Spec,Fac Spec,Fac Spec,2014,2014,2014,2014,0.34,Default,,322110,322,3221,32211,322110,,,,,,2621,3.0102E+12,11585456,Outfall,32.58302343,93773,35030.98373,,TRUE,TRUE,,,
31407STNCN1BONN,18432,1.10006E+11,32.155424,-81.159028,0,14,1713,1380,FRS,2019,,,INTERNATIONAL PAPER CO - PORT WENTWORTH,1 BONNYBRIDGE RD,PORT WENTWORTH,CHATHAM,GA,31407,31407,13051,13,828789524,1316561,INTERNATIONAL PAPER CO,INTERNATIONAL PAPER CO,4,C,,RUSS FOULKE,9129641271,,RUSS.FOULKE@IPAPER.COM,38.7,12,1.6,355.4,Fac Spec,Fac Spec,Fac Spec,Fac Spec,2014,2014,2014,2014,0.34,Default,,322110,322,3221,32211,322110,,,,,,2611,3.06011E+12,20107245,Outfall,162.7150592,3822,4593.206847,,TRUE,TRUE,,,
99363BSCSCPOBOX,60874,1.10005E+11,46.10396,-118.9184,0,14,-2170,3434,FRS,2019,,,BOISE WHITE PAPER LLC,31831 W HWY 12,WALLULA,WALLA WALLA,WA,99363,99363,53071,53,23873644,60047151,PACKAGING CORP OF AMERICA,PACKAGING CORP OF AMERICA,10,C,,JOHN MILAM III,5095453781,,JMILAM@PACKAGINGCORP.COM,37.7,11.6,2.3,357.6,Fac Spec,Fac Spec,Fac Spec,Fac Spec,2014,2014,2014,2014,0.34,Default,,322110,322,3221,32211,322110,322121,322130,,,,2611,1.70701E+13,24233050,Outfall,986.5950322,24163,23199.59193,,TRUE,TRUE,TRUE,,
31545TTRYNSAVAN,18534,1.10017E+11,31.658978,-81.84287,0,14,1645,1300,FRS,2019,,,RAYONIER PERFORMANCE FIBERS JESUP MILL,4470 SAVANNAH HWY,JESUP,WAYNE,GA,31545,31545,13305,13,NA,79357843,RAYONIER ADVANCED MATERIALS,RAYONIER ADVANCED MATERIALS INC,4,C,,TIM KRUSH,9042771409,,TIM.KRUSH@RAYONIERAM.COM,38.7,11.6,1.6,379.8,Fac Spec,Fac Spec,Fac Spec,Fac Spec,2014,2014,2014,2014,0.34,Default,,322110,322,3221,32211,322110,,,,,,2611,3.07011E+12,14347322,Outfall,362.612115,13878,62329.89624,,TRUE,TRUE,TRUE,,
83501PTLTC805MI,52132,1.10054E+11,46.429589,-116.973741,0,14,-1980,3435,FRS,2019,,,CLEARWATER PAPER CORP-PPD & CPD IDAHO,803 MILL RD,LEWISTON,NEZ PERCE,ID,83501,83501,16069,16,9061375,782437318,CLEARWATER PAPER CORP,CLEARWATER PAPER CORP,10,C,,SHANNON MYERS,5093445967,,SHANNON.MYERS@CLEARWATERPAPER.COM,41.3,11.6,1.7,351.5,Fac Spec,Fac Spec,Fac Spec,Fac Spec,2014,2014,2014,2014,0.34,Default,,322110,322,3221,32211,322110,322130,,,,,2611,1.70601E+13,24227921,Outfall,2.532939239,24149,6943.800592,,TRUE,TRUE,TRUE,,
70634BSSTHUSHIG,44906,1.10006E+11,30.8627,-93.3751,0,14,309,1072,FRS,2019,,,PACKAGING CORP OF AMERICA - DERIDDER MILL,4200 US HWY 190 W,DERIDDER,BEAUREGARD PARISH,LA,70634,70634,22011,22,118491125,60047151,PACKAGING CORP OF AMERICA,PACKAGING CORP OF AMERICA,6,C,,ANNETTE HABETZ,3374624431,,ANNETTEHABETZ@PACKAGINGCORP.COM,21.7,6,1.2,347,Fac Spec,Fac Spec,Fac Spec,Fac Spec,2014,2014,2014,2014,0.34,Default,,322110,322,3221,32211,322110,,,,,,2631,1.201E+13,8330368,Outfall,306.8292405,3937,84290.3136,,TRUE,TRUE,TRUE,,
27962WYRHSTROWB,14239,1.10014E+11,35.861716,-76.779683,0,14,2109,1971,FRS,2019,,,DOMTAR PAPER CO LLC-PLYMOUTH MILL,TROWBRIDGE RD,PLYMOUTH,MARTIN,NC,27962,27962,37117,37,151475035,1306992,DOMTAR CORP,WEYERHAEUSER CO,4,C,,THOMAS HOWARD,8038028041,,THOMAS.HOWARD@DOMTAR.COM,61,22.9,1.6,394.3,Fac Spec,Fac Spec,Fac Spec,Fac Spec,2014,2014,2014,2014,0.34,Default,,322110,322,3221,32211,322110,,,,,,2611,,10452280,,304.2508208,13786,70182.02784,,TRUE,TRUE,TRUE,,
97391GRGPCBUTLE,59660,1.10014E+11,44.614453,-123.936832,0,14,-2692,3365,FRS,2019,,,GEORGIA-PACIFIC TOLEDO LLC,1400 SE BUTLER BRIDGE RD,TOLEDO,LINCOLN,OR,97391,97391,41041,41,9411505,6944334,KOCH INDUSTRIES INC,KOCH INDUSTRIES INC,10,C,,C.J. DRAKE,5413368202,,CJDRAKE@GAPAC.COM,17.1,5.9,1.2,323.7,Fac Spec,Fac Spec,Fac Spec,Fac Spec,2014,2014,2014,2014,0.34,Default,,322110,322,3221,32211,322110,,,,,,2631,1.71002E+13,23882302,Outfall,63.40388781,24221,79585.10528,,TRUE,TRUE,,,
04239NTRNTRILEY,2883,1.10008E+11,44.506335,-70.238607,0,14,2492,3291,FRS,2019,,,VERSO CORP,300 RILEY RD - ANDROSCOGGIN MILL,JAY,FRANKLIN,ME,4239,4239,23007,23,805878790,826480902,VERSO CORP,VERSO CORP,1,C,,KATHI ROWZIE,9372429093,,KATHI.ROWZIE@VERSOCO.COM,29.6,14.8,1,333.1,Fac Spec,Fac Spec,Fac Spec,Fac Spec,2014,2014,2014,2014,0.34,Default,,322110,322,3221,32211,322110,,,,,,2621,,6710305,,363.35697,14605,40681.51435,,TRUE,TRUE,,,
29442NTRNTKAMIN,16100,1.1E+11,33.370431,-79.305575,0,14,1895,1580,FRS,2019,,,INTERNATIONAL PAPER GEORGETOWN MILL,700 S KAMINSKI ST,GEORGETOWN,GEORGETOWN,SC,29440,29440,45043,45,55915086,1316561,INTERNATIONAL PAPER CO,INTERNATIONAL PAPER CO,4,C,,JOSH FLEMING,8435452692,,JOSHUA.FLEMING@IPAPER.COM,38.7,7.2,2.4,320.1,Fac Spec,Fac Spec,Fac Spec,Fac Spec,2014,2014,2014,2014,0.34,Default,,322110,322,3221,32211,322110,322121,322130,,,,2611,,11565944,,1084.015167,93718,73392.0319,,TRUE,TRUE,,,
32034TTRYNFOOTO,18786,1.10028E+11,30.662356,-81.47105,0,14,1708,1171,FRS,2019,,,RAYONIER PERFORMANCE FIBERS LLC FERNANDINA PLANT,10 GUM ST,FERNANDINA BEACH,NASSAU,FL,32034,32034,12089,12,1265263,79357843,RAYONIER ADVANCED MATERIALS INC,RAYONIER ADVANCED MATERIALS INC,4,C,,TIM KRUSH,9042771409,,TIM.KRUSH@RAYONIERAM.COM,56.4,16.4,1.6,319.8,Fac Spec,Fac Spec,Fac Spec,Fac Spec,2014,2014,2014,2014,0.34,Default,,322110,322,3221,32211,322110,,,,,,2611,3.0702E+12,18257987,Outfall,36.94821354,13889,28394.91781,,TRUE,TRUE,TRUE,,
36470LBMRVOFFHI,21734,1.10001E+11,31.580112,-87.490073,0,14,992,1211,FRS,2019,,,ALABAMA RIVER CELLULOSE LLC,2373 LENA LANDEGGER HWY,PERDUE HILL,MONROE,AL,36470,36470,1099,1,NA,6944334,KOCH INDUSTRIES INC,KOCH INDUSTRIES INC,4,C,,SLOAN POPPELL,2517438218,,SLOAN.POPPELL@GAPAC.COM,81.1,29.2,4.3,467,Fac Spec,Fac Spec,Fac Spec,Fac Spec,2014,2014,2014,2014,0.34,Default,,322110,322,3221,32211,322110,,,,,,2611,3.1502E+12,18239421,Outfall,75.896659,53820,46061.54108,,TRUE,TRUE,,,
04694GRGPCMILLA,2981,1.10013E+11,45.156894,-67.402006,0,14,2732,3455,FRS,2019,,,WOODLAND PULP LLC,144 MAIN ST,BAILEYVILLE,WASHINGTON,ME,4694,4694,23029,23,128561235,NA,INTERNATIONAL GRAND INVESTMENT CORP (IGIC),INTERNATIONAL GRAND INVESTMENT CORP,1,C,,C. SCOTT BEAL,2074273311,4004,COLLIN.BEAL@IGIC.COM,75.1,10.7,2.3,345.6,Fac Spec,Fac Spec,Fac Spec,Fac Spec,2014,2014,2014,2014,0.34,Default,,322121,322,3221,32212,322121,,,,,,2611,1.05E+12,5196916,Outfall,79.17550489,14609,111622.0932,,TRUE,TRUE,,,
32078GRGPCSTATE,18822,1.10001E+11,29.681083,-81.680217,0,14,1704,1035,FRS,2019,,,GEORGIA-PACIFIC CONSUMER OPERATIONS LLC,215 COUNTY RD 216,PALATKA,PUTNAM,FL,32177,32177,12107,12,4056248,6944334,KOCH INDUSTRIES INC,KOCH INDUSTRIES INC,4,C,,MICHAEL GRIFFITH,3863252001,,MICHAEL.GRIFFITH@GAPAC.COM,39.9,15.5,1.3,347,Fac Spec,Fac Spec,Fac Spec,Fac Spec,2014,2014,2014,2014,0.34,Default,,322121,322,3221,32212,322121,322130,322291,,,,2611,3.0801E+12,16665281,Outfall,389.6401591,12816,56686.19982,,TRUE,TRUE,TRUE,,
04976SDWRRRFD3U,3047,1.10017E+11,44.703333,-69.648889,0,14,2540,3333,FRS,2019,,,SAPPI NA INC - SOMERSET OPERATIONS,1329 WATERVILLE RD,SKOWHEGAN,SOMERSET,ME,4976,4976,23025,23,361706708,879301059,SDW HOLDINGS CORP,SDW HOLDINGS CORP,1,C,,OLGA KARAGIANNIS,6174235409,,OLGA.KARAGIANNIS@SAPPI.COM,34,16.1,3.2,352,Fac Spec,Fac Spec,Fac Spec,Fac Spec,2014,2014,2014,2014,0.34,Default,,322121,322,3221,32212,322121,322110,,,,,2621,1.03E+12,3322180,Outfall,12.7123935,14605,44105.69846,,TRUE,TRUE,TRUE,,
32533CHMPN375MU,19137,1.10036E+11,30.60539,-87.322938,0,14,1023,1080,FRS,2019,,,INTERNATIONAL PAPER PENSACOLA MILL,375 MUSCOGEE RD,CANTONMENT,ESCAMBIA,FL,32533,32533,12033,12,NA,1316561,INTERNATIONAL PAPER CO,INTERNATIONAL PAPER CO,4,C,,WHITNEY FIKE,8509683076,,WHITNEY.FIKE@IPAPER.COM,52.4,10.1,1.2,355.4,Fac Spec,Fac Spec,Fac Spec,Fac Spec,2014,2014,2014,2014,0.34,Default,,322121,322,3221,32212,322121,322110,,,,,2621,3.14011E+12,10853979,Outfall,382.8774544,13899,19375.95605,,TRUE,TRUE,,,
49634PCKGN2245U,33729,1.1E+11,44.21336,-86.284609,0,14,954,2960,FRS,2019,,,PACKAGING CORP OF AMERICA,2246 UDELL ST,FILER CITY,MANISTEE,MI,49634,49634,26101,26,143158207,NA,PACKAGING CORP OF AMERICA,PACKAGING CORP OF AMERICA,5,C,,SARA KALTUNAS,2317239951,465,SKALTUNAS@PACKAGINGCORP.COM,38.1,11,1.9,434.5,Fac Spec,Fac Spec,Fac Spec,Fac Spec,2014,2014,2014,2014,0.34,Default,,322121,322,3221,32212,322121,,,,,,2621,4.0601E+12,8988816,Outfall,312.2604227,14850,80235.34332,,TRUE,TRUE,TRUE,,
36545BSCSC307WE,21790,1.1E+11,31.492253,-87.898805,0,14,945,1195,FRS,2019,,,BOISE WHITE PAPER LLC,4585 INDUSTRIAL RD,JACKSON,CLARKE,AL,36545,36545,1025,1,2993905,60047151,PACKAGING CORP OF AMERICA,PACKAGING CORP OF AMERICA,4,C,,RANDY ABSTON,2512468282,,RANDYABSTON@BOISEPAPER.COM,64.2,13.4,2.3,378.1,Fac Spec,Fac Spec,Fac Spec,Fac Spec,2014,2014,2014,2014,0.34,Default,,322121,322,3221,32212,322121,,,,,,2611,3.1602E+12,21642176,Outfall,219.3452501,53820,81524.89182,,TRUE,TRUE,TRUE,,
29411WSTVC5600A,16069,1.10017E+11,32.8995,-79.9667,0,14,1832,1503,FRS,2019,,,KAPSTONE CHARLESTON KRAFT LLC,5600 VIRGINIA AVE,NORTH CHARLESTON,CHARLESTON,SC,29406,294063699,45019,45,828651799,NA,KAPSTONE PAPER & PACKAGING CORP,WESTROCK CO,4,C,,ROBERT RHOADES,8437453108,,ROBERT.A.RHOADES@WESTROCK.COM,70.1,16.1,1.8,379.8,Fac Spec,Fac Spec,Fac Spec,Fac Spec,2014,2014,2014,2014,0.34,Default,,322121,322,3221,32212,322121,,,,,,2611,3.0502E+12,9645373,Outfall,135.9006868,13880,6190.118862,,TRUE,TRUE,,,
12883NTRNTSHORE,6727,1.1E+11,43.891973,-73.399275,0,14,2212,3131,FRS,2019,,,INTERNATIONAL PAPER,568 SHORE AIRPORT RD,TICONDEROGA,ESSEX,NY,12883,12883,36031,36,2067882,1316561,INTERNATIONAL PAPER CO,INTERNATIONAL PAPER CO,2,C,,DONNA WADSWORTH,5185855460,,DONNA.WADSWORTH@IPAPER.COM,33.4,0.3,1.2,318.7,Fac Spec,Fac Spec,Fac Spec,Fac Spec,2014,2014,2014,2014,0.34,Default,,322121,322,3221,32212,322121,,,,,,2611,4.15041E+12,10314334,Outfall,769.0267652,14750,63570.39029,,TRUE,TRUE,,,
04276BSCSCROUTE,2910,1.10058E+11,44.551986,-70.540525,0,14,2462,3290,FRS,2019,,,ND PAPER INC - RUMFORD DIV,35 HARTFORD ST,RUMFORD,OXFORD,ME,4276,4276,23017,23,81326476,81274772,ND PAPER INC.,ND PAPER LLC,1,C,,SCOTT REED,2073692203,,SCOTT.REED@US.NDPAPER.COM,61,10.1,1.2,342.6,Fac Spec,Fac Spec,Fac Spec,Fac Spec,2014,2014,2014,2014,0.34,Default,,322121,322,3221,32212,322121,322110,,,,,2621,1.04E+12,6710311,Outfall,83.45501469,94700,50651.92636,,TRUE,TRUE,,,
54956KMBRL249NO,36886,1.10005E+11,44.19391,-88.47556,0,14,739,2938,FRS,2019,,,CELLU TISSUE CORP-NEENAH (DBA CLEARWATER PAPER-NEENAH),249 N LAKE ST,NEENAH,WINNEBAGO,WI,54956,54956,55139,55,129453663,927757179,CELLU TISSUE HOLDINGS INC.,CELLU TISSUE HOLDINGS INC,5,C,,THOMAS METTLACH,9207219800,,THOMAS.METTLACH@CLEARWATERPAPER.COM,15.5,14.7,0.9,295.9,Fac Spec,Fac Spec,Fac Spec,Fac Spec,2014,2014,2014,2014,0.34,Default,,322121,322,3221,32212,322121,,,,,,2621,,12009578,,330.253115,94855,24230.20496,,,TRUE,,,
71635GRGPCPAPER,45370,1.1E+11,33.139372,-91.96557,0,14,462,1391,FRS,2019,,,GEORGIA-PACIFIC CROSSETT PAPER OPERATIONS,100 MILL SUPPLY RD,CROSSETT,ASHLEY,AR,71635,71635,5003,5,9020777,6944334,KOCH INDUSTRIES INC,KOCH INDUSTRIES INC,6,C,,JENNIFER L. KING,8705678422,,JENNIFER.KING@GAPAC.COM,53.3,10.6,3.8,340.1,Fac Spec,Fac Spec,Fac Spec,Fac Spec,2014,2014,2014,2014,0.34,Default,,322121,322,3221,32212,322121,322130,322291,325194,325199,325211,2621,8.0402E+12,17915145,Outfall,19.76664777,53919,58914.97868,,TRUE,TRUE,,,
29704BWTRC5300C,16647,1.1E+11,34.844552,-80.893101,0,14,1684,1751,FRS,2019,,,RESOLUTE FOREST PRODUCTS - CATAWBA OPERATIONS,5300 CURETON FERRY RD,CATAWBA,YORK,SC,29704,29704,45091,45,1946011,1946011,RESOLUTE FOREST PRODUCTS INC,RESOLUTE FOREST PRODUCTS INC,4,C,,MIKE SWANSON,8039818010,,MIKE.SWANSON@NEW-INDYCB.COM,45.4,14.1,2.2,402.6,Fac Spec,Fac Spec,Fac Spec,Fac Spec,2014,2014,2014,2014,0.34,Default,,322121,322,3221,32212,322121,322110,,,,,2611,3.0501E+12,9733976,Outfall,671.9267482,53871,21839.16704,,TRUE,TRUE,,,
29044NNCMPROUTE,15625,1.10044E+11,33.886304,-80.638114,0,14,1734,1625,FRS,2019,,,INTERNATIONAL PAPER CO EASTOVER MILL,4001 MCCORDS FERRY RD,EASTOVER,RICHLAND,SC,29044,29044,45079,45,1316561,1316561,INTERNATIONAL PAPER CO,INTERNATIONAL PAPER CO,4,C,,JOHN BAKER,8033537440,,JOHN.BAKER1@IPAPER.COM,51.5,15.5,1.4,357,Fac Spec,Fac Spec,Fac Spec,Fac Spec,2014,2014,2014,2014,0.34,Default,,322121,322,3221,32212,322121,,,,,,2611,,9720163,,1057.370002,53867,34336.03578,,TRUE,TRUE,,,
36916JMSRVROUTE,21980,1.10017E+11,32.227246,-88.02391,1,14,922,1294,Manual,2016,Confirmed via signage.,,GEORGIA-PACIFIC CONSUMER OPERATIONS LLC,7530 HWY 114,PENNINGTON,CHOCTAW,AL,36916,36916,1023,1,808215706,806142217,KOCH INDUSTRIES INC,KOCH INDUSTRIES INC,4,C,,BILL DAVIS,2054591286,,WILLIAM.DAVIS2@GAPAC.COM,35.4,13.7,1.2,341.5,Fac Spec,Fac Spec,Fac Spec,Fac Spec,2014,2014,2014,2014,0.34,Default,,322121,322,3221,32212,322121,322130,,,,,2611,3.1602E+12,18546622,Outfall,9.746533447,13865,69264.51496,,TRUE,TRUE,TRUE,,
71822NKSPPHIGHW,45476,1.10001E+11,33.64108,-94.11243,0,14,215,1453,FRS,2019,,,DOMTAR AW LLC  ASHDOWN MILL,285 HWY 71 S,ASHDOWN,LITTLE RIVER,AR,71822,71822,5081,5,114415925,202169744,DOMTAR CORP,DOMTAR CORP,6,C,,TAMMY WATERS,8708982711,,TAMMY.WATERS@DOMTAR.COM,71.6,10.8,3,355.4,Fac Spec,Fac Spec,Fac Spec,Fac Spec,2014,2014,2014,2014,0.34,Default,,322121,322,3221,32212,322121,,,,,,2611,1.11401E+13,9544181,Outfall,60.59772464,13977,22943.3121,,TRUE,TRUE,,,
54507RHNLN515WE,36527,1.1E+11,45.6391,-89.421,0,14,633,3129,FRS,2019,,,AHLSTROM-MUNKSJO NA SPECIALTY SOLUTIONS LLC,515 W DAVENPORT ST,RHINELANDER,ONEIDA,WI,54501,54501,55085,55,NA,790443449,AHLSTROM-MUNKSJO NORTH AMERICAN SPECIALTY SOLUTIONS LLC,AHLSTROM-MUNKSJO NA SPECIALTY SOLUTIONS LLC,5,C,,TOM EMOND,7153694160,,,18.3,12.7,0.9,324.8,Fac Spec,Fac Spec,Fac Spec,Fac Spec,2014,2014,2014,2014,0.34,Default,,322121,322,3221,32212,322121,,,,,,2621,7.07E+12,13395849,Outfall,81.82067774,4803,3537.587925,,TRUE,TRUE,TRUE,,
3676WNTRNT76HIG,21916,1.10044E+11,31.969744,-87.480695,0,14,988,1265,FRS,2019,,,INTERNATIONAL PAPER-PINE HILL MILL,7600 HIGHWAY 10 W,PINE HILL,WILCOX,AL,36769,36769,1131,1,NA,1316561,INTERNATIONAL PAPER CO,INTERNATIONAL PAPER CO,4,C,,MEGAN INMAN,3349632407,,MEGAN.INMAN@IPAPER.COM,58.7,17,3.4,411.8,Fac Spec,Fac Spec,Fac Spec,Fac Spec,2014,2014,2014,2014,0.34,Default,,322121,322,3221,32212,322121,,,,,,,3.1502E+12,21459142,Outfall,965.7144343,53820,74150.8304,,TRUE,TRUE,,,
36701HMMRMRIVER,21891,1.10002E+11,32.42522,-86.871582,0,14,1053,1334,FRS,2019,,,INTERNATIONAL PAPER - RIVERDALE MILL,601 COUNTY RD 78,SELMA,DALLAS,AL,36703,36703,1047,1,1385988,1316561,INTERNATIONAL PAPER CO,INTERNATIONAL PAPER CO,4,C,,DAVID NIX,3348723481,,DAVID.NIX@IPAPER.COM,47.2,16.2,1.8,316.5,Fac Spec,Fac Spec,Fac Spec,Fac Spec,2014,2014,2014,2014,0.34,Default,,322121,322,3221,32212,322121,,,,,,2611,3.1502E+12,21687248,Outfall,129.5765234,13895,46429.62654,,TRUE,TRUE,,,
54703PPTLB1200F,36636,1.1E+11,44.828889,-91.509167,0,14,438,3006,FRS,2019,,,CASCADES TISSUE GROUP - WISCON SIN INC,1200 FOREST ST,EAU CLAIRE,EAU CLAIRE,WI,54703,54703,55035,55,202026399,202026399,CASCADES INC,CASCADES INC,5,C,,CHARLES G. STANKE,7158343461,70154,CHUCK_STANKE@CASCADES.COM,26.2,9.5,1.1,327,Fac Spec,Fac Spec,Fac Spec,Fac Spec,2014,2014,2014,2014,0.34,Default,,322121,322,3221,32212,322121,322110,322291,,,,2621,7.05001E+12,13107201,Outfall,131.3605936,14991,4713.161215,,TRUE,TRUE,,,
49829MDPBLCOUNT,33811,1.10017E+11,45.804839,-87.090123,1,14,855,3170,Manual,2016,"Confirmed via signage Verso, parent company per RMP.",,VERSO ESCANABA LLC,7100 COUNTY RD 426,ESCANABA,DELTA,MI,49829,49829,26041,26,360712918,826480902,VERSO CORP,VERSO CORP,5,C,,PAM LAUSCHER,9062332305,,PAMLA.LAUSCHER@VERSOCO.COM,54.7,18.2,1.2,355.9,Fac Spec,Fac Spec,Fac Spec,Fac Spec,2014,2014,2014,2014,0.34,Default,,322121,322,3221,32212,322121,,,,,,2621,4.03011E+12,11962028,Outfall,166.1960328,94893,79368.7024,,TRUE,TRUE,,,
71247STNHDMILLS,45239,1.10001E+11,32.276643,-92.727371,0,14,379,1269,FRS,2019,,,WESTROCK CP LLC,100 MILL ST,HODGE,JACKSON PARISH,LA,71247,71247,22049,22,968505995,81092578,WESTROCK CO,WESTROCK CO,6,C,,ERIC TAYLOR,3182594421,,ERIC.TAYLOR@WESTROCK.COM,15,10.3,0.9,333.1,Fac Spec,Fac Spec,Fac Spec,Fac Spec,2014,2014,2014,2014,0.28,6DigitNAICS,,322130,322,3221,32213,322130,,,,,,2631,8.0403E+12,15216415,Outfall,279.5652683,13942,69774.60505,,TRUE,TRUE,,,
30162NLNDR238MA,17256,1.10054E+11,34.253517,-85.329016,0,14,1202,1602,FRS,2019,,,INTERNATIONAL PAPER ROME LINERBOARD MILL,238 MAYS BRIDGE RD,ROME,FLOYD,GA,30165,30165,13115,13,186221693,146782263,INTERNATIONAL PAPER CO,INTERNATIONAL PAPER CO,4,C,,LAURA CONNOR,7062908499,,LAURA.CONNOR@IPAPER.COM,24.8,10.5,1.5,360.9,Fac Spec,Fac Spec,Fac Spec,Fac Spec,2014,2014,2014,2014,0.28,6DigitNAICS,,322130,322,3221,32213,322130,321113,,,,,2631,,15821357,,472.8457255,93801,18669.943,,TRUE,TRUE,,,
30913FDRLPHIGHW,18207,1.1E+11,33.3286,-81.9537,0,14,1598,1526,FRS,2019,,,GRAPHIC PACKAGING INTERNATIONAL LLC,4278 MIKE PADGETT HWY,AUGUSTA,RICHMOND,GA,30906,30906,13245,13,808839062,943786657,GRAPHIC PACKAGING HOLDING CO,GRAPHIC PACKAGING HOLDING CO,4,C,,DEAN MESSNER,7067965580,,DEAN.MESSNER@GRAPHICPKG.COM,61,17.1,2.2,408.7,Fac Spec,Fac Spec,Fac Spec,Fac Spec,2014,2014,2014,2014,0.28,6DigitNAICS,,322130,322,3221,32213,322130,,,,,,2611,3.06011E+12,22724113,Outfall,97.81247762,3820,4444.999948,,TRUE,TRUE,,,
70775JMSRVENDOF,45041,1.10001E+11,30.709033,-91.320677,0,14,552,1061,FRS,2019,,,HOOD CONTAINER OF LOUISIANA LLC - ST FRANCISVILLE MILL,2105 HWY 964,SAINT FRANCISVILLE,WEST FELICIANA PARISH,LA,70775,70775,22125,22,962706151,,NA,NA,6,C,,STEVE BRIGNAC,2253362527,,STEVE.BRIGNAC@HOODCONTAINER.COM,42.7,304.8,2.1,463.7,Fac Spec,Fac Spec,Fac Spec,Fac Spec,2014,2014,2014,2014,0.28,6DigitNAICS,,322130,322,3221,32213,322130,,,,,,2611,8.0701E+12,19085479,Outfall,780.8891684,13976,85043.48771,,TRUE,TRUE,,,
71052NTRNTHWY50,45133,1.1E+11,32.15889,-93.55667,0,14,283,1250,FRS,2019,,,INTERNATIONAL PAPER CO - MANSFIELD MILL,1202 LOUISIANA HWY 509 NE,MANSFIELD,DE SOTO PARISH,LA,71052,71052,22031,22,1316561,1316561,INTERNATIONAL PAPER CO,INTERNATIONAL PAPER CO,6,C,,LOUIS DEROSE,3188711561,,LOUIS.DEROSE@IPAPER.COM,30.5,0,1,341.5,Fac Spec,Fac Spec,Fac Spec,Fac Spec,2014,2014,2014,2014,0.28,6DigitNAICS,,322130,322,3221,32213,322130,,,,,,2631,1.11402E+13,8342819,Outfall,2449.152303,13957,42098.36346,,TRUE,TRUE,TRUE,,
77656PLPPPPOBOX,50070,1.10001E+11,30.3387,-94.06635,0,14,229,999,FRS,2019,,,WESTROCK TEXAS LP,1913 FM 105,EVADALE,JASPER,TX,77615,77615,48241,48,79973904,81092578,WESTROCK CO,WESTROCK CO,6,C,,PENNY SULLIVAN,4092763199,,PENNY.SULLIVAN@WESTROCK.COM,43.6,1.5,0.4,340.9,Fac Spec,Fac Spec,Fac Spec,Fac Spec,2014,2014,2014,2014,0.28,6DigitNAICS,,322130,322,3221,32213,322130,,,,,,2631,1.202E+13,1114355,Outfall,85.31493767,12917,43481.09081,,TRUE,TRUE,,,
71654PTLTCHIGHW,45382,1.10012E+11,33.708889,-91.241111,0,14,541,1473,FRS,2019,,,CLEARWATER PAPER CORP,5082 HWY 4 N,ARKANSAS CITY,DESHA,AR,71630,71630,5041,5,829116628,782437318,CLEARWATER PAPER CORP,CLEARWATER PAPER CORP,6,C,,BILL HORNE,8707302555,,BILL.HORNE@CLEARWATERPAPER.COM,80.8,6.8,1.2,366.5,Fac Spec,Fac Spec,Fac Spec,Fac Spec,2014,2014,2014,2014,0.28,6DigitNAICS,,322130,322,3221,32213,322130,322110,322121,,,,2631,8.0301E+12,18055474,Outfall,2249.341055,13939,34484.84158,,TRUE,TRUE,,,
39654GRGPCSANDI,24401,1.10017E+11,31.625853,-90.0839,0,14,690,1194,FRS,2019,,,GEORGIA-PACIFIC MONTICELLO LL C,SANDIFER HWY 5 MILES N OF MONTICELLO,MONTICELLO,LAWRENCE,MS,39654,39654,28077,28,122688500,6944334,KOCH INDUSTRIES INC,KOCH INDUSTRIES INC,4,C,,JESSICA BREAZEALE,6014554694,,JESSICA.BREAZEALE@GAPAC.COM,54.3,12.7,1.2,366.5,Fac Spec,Fac Spec,Fac Spec,Fac Spec,2014,2014,2014,2014,0.28,6DigitNAICS,,322130,322,3221,32213,322130,322110,,,,,2631,3.18E+12,15737509,Outfall,10.13196356,93919,61940.70068,,TRUE,TRUE,,,
97478WYRHS785N4,59764,1.10046E+11,44.055179,-122.952998,0,14,-2622,3264,FRS,2019,,,INTERNATIONAL PAPER,801 42ND ST,SPRINGFIELD,LANE,OR,97478,97478,41039,41,106551013,1316561,INTERNATIONAL PAPER CO,INTERNATIONAL PAPER CO,10,C,,MICHELLE WINETROUT,5412147991,,MICHELLE.WINETROUT@IPAPER.COM,38,10.3,1.6,408.7,Fac Spec,Fac Spec,Fac Spec,Fac Spec,2014,2014,2014,2014,0.28,6DigitNAICS,,322130,322,3221,32213,322130,,,,,,2631,1.709E+13,23772763,Manual,660.1607721,24221,22178.21117,,TRUE,TRUE,TRUE,,
74764WYRHSHIGHW,47009,1.10001E+11,33.99919,-95.10972,0,14,101,1500,FRS,2019,,,INTERNATIONAL PAPER CO,890 IP LN,VALLIANT,MCCURTAIN,OK,74764,74764,40089,40,56362601,1316561,INTERNATIONAL PAPER CO,INTERNATIONAL PAPER CO,6,C,,LINDSEY HUTCHINGS,5809331345,,LINDSEY.HUTCHINGS@IPAPER.COM,25.3,3.8,0.7,316.5,Fac Spec,Fac Spec,Fac Spec,Fac Spec,2014,2014,2014,2014,0.28,6DigitNAICS,,322130,322,3221,32213,322130,,,,,,2631,,9540677,,794.0466389,53925,65714.85223,,TRUE,TRUE,TRUE,,
75504NTRNTPOBOX,47893,1.10008E+11,33.2644,-94.069639,0,14,221,1401,FRS,2019,,,GRAPHIC PACKAGING INTERNATIONAL LLC,9978 FARM MARKET RD 3129,QUEEN CITY,CASS,TX,75572,75572,48067,48,808839062,943786657,GRAPHIC PACKAGING HOLDING CO,GRAPHIC PACKAGING HOLDING CO,6,C,,CHERI STUART,9037961406,,CHERI.STUART@GRAPHICPKG.COM,18.3,8.4,0.8,334.5,Fac Spec,Fac Spec,Fac Spec,Fac Spec,2014,2014,2014,2014,0.28,6DigitNAICS,,322130,322,3221,32213,322130,,,,,,2631,1.11403E+13,1128337,Outfall,142.626865,13977,21845.91761,,TRUE,TRUE,,,
31206MCNKR4891M,18356,1.10006E+11,32.77259,-83.63014,0,14,1418,1423,FRS,2019,,,GRAPHIC PACKAGING INTERNATIONAL LLC,100 GRAPHIC PACKAGING INTL WAY,MACON,BIBB,GA,31206,31206,13021,13,791020399,943786657,GRAPHIC PACKAGING HOLDING CO,GRAPHIC PACKAGING HOLDING CO,4,C,,KATHLEEN FORTNEY,4787844425,,KATHLEEN.FORTNEY@GRAPHICPKG.COM,67.1,10.5,1.6,408.7,Fac Spec,Fac Spec,Fac Spec,Fac Spec,2014,2014,2014,2014,0.28,6DigitNAICS,,322130,322,3221,32213,322130,,,,,,2631,3.0701E+12,6341594,Outfall,46.6235511,3813,8282.612085,,TRUE,TRUE,TRUE,,
73401TTLPTHIGHW,46428,1.10001E+11,34.20569,-97.10417,0,14,-125,1529,FRS,2019,,,VALERO REFINING CO -OKLAHOMA VALERO ARDMORE REFINERY,ONE VALERO WAY,ARDMORE,CARTER,OK,73401,73401,40019,40,247122161,NA,VALERO ENERGY CORP,VALERO ENERGY CORP,6,C,,GREG ELLIOTT,5802216232,,GREG.ELLIOTT@VALERO.COM,13.7,6.7,2.9,492.6,Fac Spec,Fac Spec,Fac Spec,Fac Spec,2014,2014,2014,2014,0.2,6DigitNAICS,,324110,324,3241,32411,324110,,,,,,2911,,19959892,,462.9302616,3991,111505.7688,,TRUE,TRUE,,,
62454MRTHNMARAT,41615,1.1E+11,38.998676,-87.724781,0,14,875,2229,FRS,2019,,,MARATHON PETROLEUM CO LP ILLINOIS REFINING DIV,100 MARATHON AVE,ROBINSON,CRAWFORD,IL,62454,62454,17033,17,5476882,968393996,MARATHON PETROLEUM CORP,MARATHON PETROLEUM CORP,5,C,,MEGAN DAVIES,6185442121,,MNDAVIES@MARATHONPETROLEUM.COM,48.2,0,2.1,294.3,Fac Spec,Fac Spec,Fac Spec,Fac Spec,2014,2014,2014,2014,0.2,6DigitNAICS,,324110,324,3241,32411,324110,424710,,,,,2911,5.12011E+12,10286080,Outfall,22.70748638,13809,28047.19743,,TRUE,TRUE,TRUE,,
70602CTGPTHIGHW,44884,1.10001E+11,30.186553,-93.340252,1,14,316,980,Manual,2015,GoogleEarth,,CITGO PETROLEUM CORP,1601 HWY 108 E,SULPHUR,CALCASIEU PARISH,LA,70665,70665,22019,22,122413529,858706773,CITGO HOLDING INC.,CITGO HOLDING INC,6,C,,PHYLLIS HOLIFIELD,3377088431,,PHOLIFI@CITGO.COM,40.8,15.4,2.4,805.1,Fac Spec,Fac Spec,Fac Spec,Fac Spec,2014,2014,2014,2014,0.2,6DigitNAICS,,324110,324,3241,32411,324110,325180,325199,,,,2911,8.08021E+12,3709756,Outfall,858.4213811,3937,14151.02713,,TRUE,TRUE,TRUE,,
70750HLLPTHWY10,45008,1.10041E+11,30.526504,-91.748383,0,14,503,1033,FRS,2019,,,ALON REFINING KROTZ SPRINGS INC,HWY 105 S,KROTZ SPRINGS,ST LANDRY PARISH,LA,70750,70750,22097,22,806625757,876661062,ALON USA ENERGY INC,DELEK US HOLDINGS INC,6,C,,ANITA JUNKER,3375660184,,ANITA.JUNKER@DELEKUS.COM,28.2,10.8,1.6,466.5,Fac Spec,Fac Spec,Fac Spec,Fac Spec,2014,2014,2014,2014,0.2,6DigitNAICS,,324110,324,3241,32411,324110,,,,,,2911,,15169615,,758.7332799,13976,42503.17358,,TRUE,TRUE,TRUE,,
46394MCLCX2815I,29767,1.1E+11,41.663055,-87.479643,0,14,868,2598,FRS,2019,,,BP PRODUCTS NORTH AMERICA WHITING BUSINESS UNIT,2815 INDIANAPOLIS BLVD,WHITING,LAKE,IN,46394,46394,18089,18,56970940,39596507,BP AMERICA INC,BP AMERICA INC,5,C,,RICHARD P. GARRIS,2197120432,,RICHARD.GARRIS@BP.COM,57.2,5.5,0.8,824.8,Fac Spec,Fac Spec,Fac Spec,Fac Spec,2014,2014,2014,2014,0.2,6DigitNAICS,,324110,324,3241,32411,324110,,,,,,2911,,3398582,,1304.554173,14819,26415.68406,,TRUE,TRUE,TRUE,,
43616SHLCM4001C,26221,1.1E+11,41.679167,-83.449722,0,14,1277,2646,FRS,2019,,,BP-HUSKY REFINING LLC,4001 CEDAR POINT RD,OREGON,LUCAS,OH,43616,43616,39095,39,5057542,55057542,BP-HUSKY REFINING LLC,BP-HUSKY REFINING LLC,5,C,,MARY CAPRELLA,5676984423,,MARY.CAPRELLA@BP.COM,102.9,5.5,0.8,1177.6,Fac Spec,Fac Spec,Fac Spec,Fac Spec,2014,2014,2014,2014,0.2,6DigitNAICS,,324110,324,3241,32411,324110,,,,,,2911,4.10001E+12,15624493,Outfall,59.17854149,4848,13100.53951,,TRUE,TRUE,TRUE,,
90749RCPRD1801E,55175,1.10017E+11,33.81323,-118.24298,0,14,-2501,1768,FRS,2019,,,TESORO LOS ANGELES REFINERY-CARSON OPERATIONS,2350 E 223RD ST,CARSON,LOS ANGELES,CA,90810,90810,6037,6,2784932,8133480,TESORO CORP,MARATHON PETROLEUM CORP,9,C,,TIFFANY RAU,3108168100,,TERAU@MARATHONPETROLEUM.COM,21.3,15.2,0.6,422,Fac Spec,Fac Spec,Fac Spec,Fac Spec,2014,2014,2014,2014,0.2,6DigitNAICS,,324110,324,3241,32411,324110,424710,,,,,2911,1.80701E+13,20366299,Outfall,52.37348706,23129,8600.155001,,TRUE,TRUE,TRUE,,
94510XXNCS3400E,57760,1.10033E+11,38.07167,-122.13975,0,14,-2769,2446,FRS,2019,,,VALERO REFINING CO-CALI FORNIA BENICIA REFINERY,3400 E SECOND ST,BENICIA,SOLANO,CA,94510,94510,6095,6,43652424,82686916,VALERO ENERGY CORP,VALERO ENERGY CORP,9,C,,DON CUFFEL,7077457545,,DON.CUFFEL@VALERO.COM,48.8,3.4,3.1,479,Fac Spec,Fac Spec,Fac Spec,Fac Spec,2014,2014,2014,2014,0.2,6DigitNAICS,,324110,324,3241,32411,324110,,,,,,2911,1.805E+13,2785583,Outfall,517.6502849,23254,11843.58683,,TRUE,TRUE,TRUE,,
35401HNTRF1855F,21031,1.1E+11,33.2003,-87.607,0,14,959,1432,FRS,2019,,,HUNT REFINING CO A CORP,1855 FAIRLAWN RD,TUSCALOOSA,TUSCALOOSA,AL,35401,35401,1125,1,175261817,103994109,HUNT CONSOLIDATED INC,HUNT CRUDE OIL SUPPLY COMPANY LLC,4,C,,DREW ALTEMARA,2053913503,,DALTEMARA@HUNTREFINING.COM,9.2,8.3,4.3,300.9,Fac Spec,Fac Spec,Fac Spec,Fac Spec,2014,2014,2014,2014,0.2,6DigitNAICS,,324110,324,3241,32411,324110,,,,,,2911,3.16011E+12,18206548,Outfall,61.39969421,93806,1547.14991,,TRUE,TRUE,,,
75702LGLRL1702E,48054,1.1E+11,32.362643,-95.280179,0,14,83,1275,FRS,2019,,,DELEK TYLER REFINERY,1702 E COMMERCE ST,TYLER,SMITH,TX,75702,75702,48423,48,7333800,624438219,DELEK US HOLDINGS INC,DELEK US HOLDINGS INC,6,C,,DONALD WHALEY,9035793400,,DON.WHALEY@DELEKUS.COM,27.1,0.1,0.5,810.9,Fac Spec,Fac Spec,Fac Spec,Fac Spec,2014,2014,2014,2014,0.2,6DigitNAICS,,324110,324,3241,32411,324110,,,,,,2911,1.202E+13,4451678,Outfall,25.2008116,13972,11482.7023,,TRUE,TRUE,,,
78403CSTLR1300C,50507,1.10001E+11,27.810775,-97.436658,0,14,-175,652,FRS,2019,,,VALERO REFINING TEXAS LP CORPUS CHRISTI EAST PLANT,1300 CANTWELL LN,CORPUS CHRISTI,NUECES,TX,78407,78407,48355,48,79391280,82686916,VALERO ENERGY CORP,VALERO ENERGY CORP,6,C,,DARCY SCHROEDER,3612896000,,DARCY.SCHROEDER@VALERO.COM,56.7,0.2,0.8,755.4,Fac Spec,Fac Spec,Fac Spec,Fac Spec,2014,2014,2014,2014,0.2,6DigitNAICS,,324110,324,3241,32411,324110,,,,,,2911,1.21102E+13,1636631,Outfall,402.7178287,12924,8949.324571,,TRUE,TRUE,TRUE,,
08066MBLLCBILLI,5292,1.10022E+11,39.8401,-75.2574,0,14,2155,2544,FRS,2019,,,PAULSBORO REFINING CO LLC,800 BILLINGSPORT RD,PAULSBORO,GLOUCESTER,NJ,8066,8066,34015,34,NA,NA,PBF ENERGY,PBF ENERGY INC,2,C,,KRISTI MOORE,8562244354,,KRISTI.MOORE@PBFENERGY.COM,42.7,14.3,2.1,566.5,Fac Spec,Fac Spec,Fac Spec,Fac Spec,2014,2014,2014,2014,0.2,6DigitNAICS,,324110,324,3241,32411,324110,,,,,,2911,2.0402E+12,4496220,Outfall,417.5638369,13739,4811.8845,,TRUE,TRUE,TRUE,,
19145TLNTC3144P,10476,1.1E+11,39.91354,-75.19889,0,14,2158,2555,FRS,2019,,,PHILADELPHIA ENERGY SOLUTIONS REFINING PHILADELPHIA REFINERY,3144 PASSYUNK AVE,PHILADELPHIA,PHILADELPHIA,PA,19145,19145,42101,42,78625328,NA,PHILADELPHIA ENERGY SOLUTIONS LLC,PHILADELPHIA ENERGY SOLUTIONS LLC,3,C,,CHERICE CORLEY,2153397061,,CHERICECORLEY@PES-COMPANIES.COM,7,1.9,1.4,298.1,Fac Spec,Fac Spec,Fac Spec,Fac Spec,2014,2014,2014,2014,0.2,6DigitNAICS,,324110,324,3241,32411,324110,,,,,,2911,2.0402E+12,4784837,Outfall,106.4810602,13739,5526.474536,,TRUE,TRUE,TRUE,,
44711SHLND2408G,27801,1.1E+11,40.7729,-81.4151,0,14,1501,2552,FRS,2019,,,MARATHON PETROLEUM CO LP OHIO REFINING DIV,2408 GAMBRINUS AVE SW,CANTON,STARK,OH,44706,44706,39151,39,195124271,968393996,MARATHON PETROLEUM CORP,MARATHON PETROLEUM CORP,5,C,,DARIN J. BARBER,3304795577,,DJBARBER@MARATHONPETROLEUM.COM,38,10.2,1.5,579.3,Fac Spec,Fac Spec,Fac Spec,Fac Spec,2014,2014,2014,2014,0.2,6DigitNAICS,,324110,324,3241,32411,324110,,,,,,2911,,19388428,,540.3854713,14895,16093.74275,,TRUE,TRUE,TRUE,,
70051MRTHNHWY61,44496,1.10041E+11,30.06132,-90.59353,0,14,642,977,FRS,2019,,,MARATHON PETROLEUM CO LP,4663 W AIRLINE HWY,GARYVILLE,ST JOHN THE BAPTIST PARIS,LA,70051,70051,22095,22,177652716,968393996,MARATHON PETROLEUM CORP,MARATHON PETROLEUM CORP,6,C,,KEITH HIGHTOWER,9855357183,,THIGHTOWER@MARATHONPETROLEUM.COM,29.9,22.3,0.9,571.5,Fac Spec,Fac Spec,Fac Spec,Fac Spec,2014,2014,2014,2014,0.2,6DigitNAICS,,324110,324,3241,32411,324110,324121,424710,,,,2911,8.0701E+12,19086183,Outfall,257.1543096,12916,34201.00384,,TRUE,TRUE,TRUE,,
74603CNCPN1000S,46978,1.10016E+11,36.68807,-97.08786,0,14,-119,1872,FRS,2019,,,PHILLIPS 66 PONCA CITY SITE,1000 S PINE ST,PONCA CITY,KAY,OK,74601,746017501,40071,40,65504920,65504920,PHILLIPS 66 CO,PHILLIPS 66,6,C,,CHELLE CHAMBERS,5807676184,,CHELLE.M.NALL@P66.COM,28.2,7.1,0.8,317,Fac Spec,Fac Spec,Fac Spec,Fac Spec,2014,2014,2014,2014,0.2,6DigitNAICS,,324110,324,3241,32411,324110,424710,,,,,2911,1.106E+13,21037751,Outfall,29.34037945,13969,4894.718051,,TRUE,TRUE,TRUE,,
41114CTLTTPOBOX,25088,1.10008E+11,38.377246,-82.597162,0,14,1427,2206,FRS,2019,,,CATLETTSBURG REFINING LLC,11631 US RT 23,CATLETTSBURG,BOYD,KY,41129,41129,21019,21,4132630,968393996,MARATHON PETROLEUM CORP,MARATHON PETROLEUM CORP,4,C,,GERALD D. NALIBORSKI,6069216921,,GDNALIBORSKI@MARATHONPETROLEUM.COM,53.3,1,0.9,922,Fac Spec,Fac Spec,Fac Spec,Fac Spec,2014,2014,2014,2014,0.2,6DigitNAICS,,324110,324,3241,32411,324110,424710,,,,,2911,5.0702E+12,908925,Outfall,107.5547995,3860,4266.336201,,TRUE,TRUE,TRUE,,
90245CHVRN324WE,54593,1.10003E+11,33.9082,-118.4085,0,14,-2516,1785,FRS,2019,,,CHEVRON PRODUCTS CO DIV OF CHEVRON USA INC,324 W EL SEGUNDO BLVD,EL SEGUNDO,LOS ANGELES,CA,90245,90245,6037,6,8336901,1382555,CHEVRON CORP,CHEVRON CORP,9,C,,RANDY DARNELL,3106155783,,RANDYJDARNELL@CHEVRON.COM,22.6,4.4,1.4,435.9,Fac Spec,Fac Spec,Fac Spec,Fac Spec,2014,2014,2014,2014,0.2,6DigitNAICS,,324110,324,3241,32411,324110,,,,,,2911,0,-1,Outfall,1203.394103,23174,3625.004587,,TRUE,TRUE,TRUE,,
59044CNXRF803HI,38600,1.10001E+11,45.65922,-108.76778,0,14,-1225,3192,FRS,2019,,,CHS INC  LAUREL REFINERY,803 HWY 212 S,LAUREL,YELLOWSTONE,MT,59044,59044,30111,30,6147177,6147177,CHS INC,CHS INC,8,C,,PATRICK KIMMET,4066285220,,PAT.KIMMET@CHSINC.COM,61,4.4,1.4,505.4,Fac Spec,Fac Spec,Fac Spec,Fac Spec,2014,2014,2014,2014,0.2,6DigitNAICS,,324110,324,3241,32411,324110,,,,,,2911,,4343596,,857.0957652,24033,24023.68989,,TRUE,TRUE,,,
94553TSCCRAVONR,57912,1.10021E+11,38.0251,-122.0639,0,14,-2763,2438,FRS,2019,,,TESORO REFINING & MARKETING CO LLC,150 SOLANO WAY,MARTINEZ,CONTRA COSTA,CA,94553,94553,6013,6,29759037,968393996,MARATHON PETROLEUM CORP,MARATHON PETROLEUM CORP,9,C,,PATRICIA A. DEUTSCHE,9253703290,,PADEUTSCHE@MARATHONPETROLEUM.COM,18.3,20.5,0.9,676.5,Fac Spec,Fac Spec,Fac Spec,Fac Spec,2014,2014,2014,2014,0.2,6DigitNAICS,,324110,324,3241,32411,324110,,,,,,2911,1.805E+13,2785543,Outfall,199.3052232,23254,3876.786099,,TRUE,TRUE,TRUE,,
67460NTNLC2000M,43882,1.10017E+11,38.347278,-97.673846,0,14,-179,2103,FRS,2019,,,CHS MCPHERSON REFINERY,2000 S MAIN ST,MCPHERSON,MCPHERSON,KS,67460,67460,20113,20,7145956,6147177,CHS INC,CHS INC,7,C,,RHETT HEFLIN,6202419294,,RHETT.HEFLIN@CHSINC.COM,56.8,2.5,1.2,958.7,Fac Spec,Fac Spec,Fac Spec,Fac Spec,2014,2014,2014,2014,0.2,6DigitNAICS,,324110,324,3241,32411,324110,325311,,,,,2911,,21174758,,758.444928,13986,35096.49418,,TRUE,TRUE,,,
78408CHMPL1801N,50517,1.10001E+11,27.810556,-97.426944,0,14,-174,652,FRS,2019,,,CITGO REFINING & CHEMICALS CO LP EAST PLANT,1801 NUECES BAY BLVD,CORPUS CHRISTI,NUECES,TX,78407,78407,48355,48,NA,858706773,CITGO HOLDING INC,CITGO HOLDING INC,6,C,,LARRY ELIZONDO,3618445259,,LELIZON@CITGO.COM,21.3,7,1.8,468.1,Fac Spec,Fac Spec,Fac Spec,Fac Spec,2014,2014,2014,2014,0.2,6DigitNAICS,,324110,324,3241,32411,324110,,,,,,2911,1.21102E+13,1636635,Outfall,30.48644788,12924,9752.926309,,TRUE,TRUE,TRUE,,
48217MRTHN1300S,32307,1.10001E+11,42.282182,-83.158756,0,14,1295,2733,FRS,2019,,,MARATHON PETROLEUM CO LP - MICHIGAN REFINING DIV,1300 S FORT ST HES DEPT,DETROIT,WAYNE,MI,48217,48217,26163,26,968393996,968393996,MARATHON PETROLEUM CORP,MARATHON PETROLEUM CORP,5,C,,GRACE E POLING,3132976013,,GEPOLING@MARATHONPETROLEUM.COM,53.3,8.1,0.6,435.9,Fac Spec,Fac Spec,Fac Spec,Fac Spec,2014,2014,2014,2014,0.2,6DigitNAICS,,324110,324,3241,32411,324110,,,,,,2911,,10849770,,1044.024286,94847,15347.41481,,,TRUE,TRUE,,
78410KCHRFSUNTI,50537,1.10001E+11,27.832011,-97.525582,0,14,-186,655,FRS,2019,,,FLINT HILLS RESOURCES CORPUS CHRISTI LLC - WEST PLANT,2825 SUNTIDE RD,CORPUS CHRISTI,NUECES,TX,78409,78409,48355,48,48494033,6944334,KOCH INDUSTRIES INC,KOCH INDUSTRIES INC,6,C,,ANDY SAENZ,3612428772,,ANDY.SAENZ@KOCHPS.COM,12.2,8.8,1.8,341.2,Fac Spec,Fac Spec,Fac Spec,Fac Spec,2014,2014,2014,2014,0.2,6DigitNAICS,,324110,324,3241,32411,324110,325110,,,,,2911,,1636549,,1133.950808,12924,7334.048926,,TRUE,TRUE,TRUE,,
55071SHLND100WT,37052,1.10044E+11,44.850583,-93.002139,1,14,292,3003,Manual,2016,Confirmed on map.,,ST PAUL PARK REFINING CO LLC,301 ST PAUL PARK RD,SAINT PAUL PARK,WASHINGTON,MN,55071,55071,27163,27,965339000,968393996,MARATHON PETROLEUM CORP,MARATHON PETROLEUM CORP,5,C,,KATE BLAIR,6517685000,,KTBLAIR@MARATHONPETROLEUM.COM,45.7,4.4,1.2,447.6,Fac Spec,Fac Spec,Fac Spec,Fac Spec,2014,2014,2014,2014,0.2,6DigitNAICS,,324110,324,3241,32411,324110,424710,,,,,2911,7.01021E+12,1104276,Manual,410.2228756,14927,9541.191914,,TRUE,TRUE,TRUE,,
77592TXSCTLOOP1,49989,1.10033E+11,29.369167,-94.911111,0,14,131,864,FRS,2019,,,VALERO REFINING-TEXAS LP,1301 LOOP 197 S,TEXAS CITY,GALVESTON,TX,77590,77590,48167,48,193281284,79391280,VALERO ENERGY CORP,VALERO ENERGY CORP,6,C,,LESLIE G. RUCKER,4099487296,,LES.RUCKER@VALERO.COM,14.6,0,0.9,295.6,Fac Spec,Fac Spec,Fac Spec,Fac Spec,2014,2014,2014,2014,0.2,6DigitNAICS,,324110,324,3241,32411,324110,,,,,,2911,-1,-1,Manual,641.5656748,12923,12598.30876,,TRUE,TRUE,TRUE,,
45804SHLCM1150S,29006,1.1E+11,40.720649,-84.122623,0,14,1225,2506,FRS,2019,,,LIMA REFINING CO,1150 S METCALF ST,LIMA,ALLEN,OH,45804,45804,39003,39,NA,251064861,HUSKY ENERGY INC,HUSKY ENERGY INC,5,C,,STEVE ALDRICH,4192262333,,STEVE.ALDRICH@HUSKYENERGY.COM,61.7,71.8,1.4,1270.6,Fac Spec,Fac Spec,Fac Spec,Fac Spec,2014,2014,2014,2014,0.2,6DigitNAICS,,324110,324,3241,32411,324110,,,,,,2911,,15653137,,537.0806394,4850,8181.142817,,TRUE,TRUE,TRUE,,
77522XXNBY2800D,49761,1.10001E+11,29.739444,-95.006944,0,14,119,915,FRS,2019,,,EXXONMOBIL REFINING & SUPPLY BAYTOWN REFINERY (PART),2800 DECKER DR,BAYTOWN,HARRIS,TX,77520,775202099,48201,48,8072175,1213214,EXXON MOBIL CORP,EXXON MOBIL CORP,6,C,,CONNIE G. TILTON,3462597342,,CONNIE.G.TILTON@EXXONMOBIL.COM,56.8,4.9,1,322.6,Fac Spec,Fac Spec,Fac Spec,Fac Spec,2014,2014,2014,2014,0.2,6DigitNAICS,,324110,324,3241,32411,324110,,,,,,2911,-1,-1,Manual,1482.434503,12918,28299.80342,,TRUE,TRUE,TRUE,,
77506CRWNC111RE,49641,1.1E+11,29.723889,-95.208888,0,14,94,912,FRS,2019,,,PASADENA REFINING SYSTEM INC,111 RED BLUFF RD,PASADENA,HARRIS,TX,77506,77506,48201,48,184166325,363702457,PETROBRAS AMERICA INC,PETROBRAS AMERICA INC,6,C,,MARK BERLINGER,2818320740,,REBECCAFROEDGE@CHEVRON.COM,41,0.2,0.9,623.4,Fac Spec,Fac Spec,Fac Spec,Fac Spec,2014,2014,2014,2014,0.2,6DigitNAICS,,324110,324,3241,32411,324110,,,,,,2911,1.20401E+13,1440531,Outfall,201.6895137,12918,11082.49759,,TRUE,TRUE,TRUE,,
16365NTDRFPOBOX,8758,1.10044E+11,41.82949,-79.12468,0,14,1709,2735,FRS,2019,,,UNITED REFINING CO,15 BRADLEY ST,WARREN,WARREN,PA,16365,16365,42123,42,118331149,118331149,UNITED REFINING CO,UNITED REFINING CO,3,C,,ROB KAEMMERER,8147231500,,RKAEMMERER@URC.COM,9,12,0.4,866.5,Fac Spec,Fac Spec,Fac Spec,Fac Spec,2014,2014,2014,2014,0.2,6DigitNAICS,,324110,324,3241,32411,324110,,,,,,2911,5.01E+12,8975678,Outfall,63.31918431,4751,40879.10808,,TRUE,TRUE,,,
39567CHVRNPOBOX,24355,1.1E+11,30.343733,-88.4938,0,14,889,1032,FRS,2019,,,CHEVRON PRODUCTS CO PASCAGOULA REFINERY,250 IND US TRIAL RD,PASCAGOULA,JACKSON,MS,39581,39581,28059,28,54179403,1382555,CHEVRON CORP,CHEVRON CORP,4,C,,A.K. SUDDUTH,2289384548,,ALANSUDDUTH@CHEVRON.COM,76,20,1.1,1273.1,Fac Spec,Fac Spec,Fac Spec,Fac Spec,2014,2014,2014,2014,0.2,6DigitNAICS,,324110,324,3241,32411,324110,325110,,,,,2911,3.17001E+12,18072996,Outfall,63.78893507,53858,13865.77476,,TRUE,TRUE,TRUE,,
43616SNRFN1819W,26222,1.10011E+11,41.6328,-83.5019,0,14,1272,2639,FRS,2019,,,TOLEDO REFINING CO LLC,1819 WOODVILLE RD,OREGON,LUCAS,OH,43616,43616,39095,39,966137320,962619206,PBF ENERGY INC,PBF ENERGY INC,5,C,,CHRISTINE SHULTZ,4196986810,,CHRISTINE.SHULTZ@PBFENERGY.COM,37.9,42.8,0.6,837.3,Fac Spec,Fac Spec,Fac Spec,Fac Spec,2014,2014,2014,2014,0.2,6DigitNAICS,,324110,324,3241,32411,324110,,,,,,2911,,15625327,,397.3138281,4848,8054.657992,,TRUE,TRUE,TRUE,,
82007FRNTR2700E,51911,1.1E+11,41.128381,-104.787925,0,14,-902,2527,FRS,2019,,,HOLLYFRONTIER CHEYENNE REFINING LLC,2700 E. 5TH STREET,CHEYENNE,LARAMIE,WY,82007,82007,56021,56,199652181,8965808,HOLLYFRONTIER CORP,HOLLYFRONTIER CORP,8,C,,GLENN TRAVIS,3077718706,,GLENN.TRAVIS@HOLLYFRONTIER.COM,18.3,10,1.5,422,Fac Spec,Fac Spec,Fac Spec,Fac Spec,2014,2014,2014,2014,0.2,6DigitNAICS,,324110,324,3241,32411,324110,,,,,,2911,1.019E+13,2875825,Outfall,8.886865786,24018,3421.563512,,TRUE,TRUE,TRUE,,
77640TXCRFNORTH,50039,1.1E+11,29.883333,-93.958333,0,14,243,936,FRS,2019,,,MOTIVA-PORT ARTHUR REFINERY,2555 SAVANNAH AVE,PORT ARTHUR,JEFFERSON,TX,77640,77640,48245,48,23383867,NA,MOTIVA ENTERPRISES LLC,MOTIVA ENTERPRISES LLC,6,C,,VERNA RUTHERFORD,4099897015,,VERNA.RUTHERFORD@MOTIVA.COM,51.8,9.8,3,588.7,Fac Spec,Fac Spec,Fac Spec,Fac Spec,2014,2014,2014,2014,0.2,6DigitNAICS,,324110,324,3241,32411,324110,,,,,,2911,,1477537,,2057.64025,12917,9323.249767,,TRUE,TRUE,TRUE,,
19706TXCDL2000W,10880,1.10001E+11,39.588611,-75.635555,0,14,2123,2501,FRS,2019,,,DELAWARE CITY REFINERY,4550 WRANGLE HILL RD,DELAWARE CITY,NEW CASTLE,DE,19706,19706,10003,10,12209778,962406281,PBF ENERGY INC,PBF ENERGY INC,3,C,,LISA LINDSEY,3028346033,,LISA.LINDSEY@PBFENERGY.COM,92.7,14.5,3.5,566.5,Fac Spec,Fac Spec,Fac Spec,Fac Spec,2014,2014,2014,2014,0.2,6DigitNAICS,,324110,324,3241,32411,324110,,,,,,2911,2.04021E+12,24903474,Manual,1339.08755,13781,9233.010174,,TRUE,TRUE,TRUE,,
00851HSSLVLIMET,350,1.1E+11,17.7102,-64.7544,0,44,196,-39,FRS,2019,,,LIMETREE BAY TERMINALS LLC,1 ESTATE HOPE,CHRISTIANSTED,ST CROIX,VI,820,820,78010,78,80152819,,NA,NA,2,C,,CATHERINE ELIZEE,3406923073,,CELIZEE@LBTERMINALS.COM,22.6,4.4,1.4,435.9,Fac Spec,Fac Spec,Fac Spec,Fac Spec,2014,2014,2014,2014,0.2,6DigitNAICS,,324110,324,3241,32411,324110,,,,,,2911,0,-1,Outfall,,11641,154261.5669,,TRUE,TRUE,,,
99686PTRST25MIL,60907,1.10042E+11,61.083809,-146.250842,0,24,513,1553,FRS,2019,,,PETRO STAR VALDEZ REFINERY,2.5 MILE DAYVILLE RD,VALDEZ,VALDEZ-CORDOVA CENSUS ARE,AK,99686,99686,2261,2,131463705,78316575,ARCTIC SLOPE REGIONAL CORP,ARCTIC SLOPE REGIONAL CORP,10,C,,LISA LEWIS,9073396630,,LVLEWIS@PETROSTAR.COM,0.3,0,0,272,Fac Spec,Fac Spec,Fac Spec,Fac Spec,2014,2014,2014,2014,0.2,6DigitNAICS,,324110,324,3241,32411,324110,,,,,,2911,,,,,26410,79140.33206,,,TRUE,,,
78223HWLLH7811S,50412,1.1E+11,29.3476,-98.4603,0,14,-295,864,FRS,2019,,,CALUMET SAN ANTONIO REFINING LLC,7811 S PRESA ST,SAN ANTONIO,BEXAR,TX,78223,78223,48029,48,NA,78749219,CALUMET SPECIALTY PRODUCTS PARTNERS LP,CALUMET SPECIALTY PRODUCTS PARTNERS LP,6,C,,AMY CLIMO,2109187414,,AMY.CLIMO@CALUMETSPECIALTY.COM,22.9,0,0.4,810.9,Fac Spec,Fac Spec,Fac Spec,Fac Spec,2014,2014,2014,2014,0.2,6DigitNAICS,,324110,324,3241,32411,324110,,,,,,2911,,10840502,,300.0398364,12970,1570.004405,,TRUE,TRUE,,,
73098KRRMC906SO,46275,1.1E+11,34.63001,-97.16942,0,14,-131,1588,FRS,2019,,,WYNNEWOOD REFINING CO,906 S POWELL AVE,WYNNEWOOD,GARVIN,OK,73098,73098,40049,40,926889783,795416135,CVR ENERGY INC,CVR ENERGY INC,6,C,,CURTIS MILES,4056656601,,CMILES@CVRENERGY.COM,48.5,6.8,0.1,577.6,Fac Spec,Fac Spec,Fac Spec,Fac Spec,2014,2014,2014,2014,0.2,6DigitNAICS,,324110,324,3241,32411,324110,,,,,,2911,1.11303E+13,19957828,Outfall,11.28714776,13967,94170.72574,,TRUE,TRUE,TRUE,,
54880MRPHY24THA,36733,1.1E+11,46.6915,-92.072,0,14,372,3259,FRS,2019,,,SUPERIOR REFINING CO LLC,2407 STINSON AVE,SUPERIOR,DOUGLAS,WI,54880,54880,55031,55,16967433,,NA,NA,5,C,,MARK DARBY,7153988453,,MARK.DARBY@HUSKYENERGY.COM,45.3,9.5,0.8,555.1,Fac Spec,Fac Spec,Fac Spec,Fac Spec,2014,2014,2014,2014,0.2,6DigitNAICS,,324110,324,3241,32411,324110,,,,,,2911,4.0102E+12,1799871,Outfall,7.949620571,14913,17861.9011,,TRUE,TRUE,,,
88210NVJRF501EA,53759,1.1E+11,32.848593,-104.394383,0,14,-963,1384,FRS,2019,,,HOLLYFRONTIER NAVAJO REFINING LLC - ARTESIA REFINERY,501 E MAIN ST,ARTESIA,EDDY,NM,88210,88210,35015,35,850301920,8965808,HOLLYFRONTIER CORP,HOLLYFRONTIER CORP,6,C,,SCOTT M. DENTON,5757465487,,SCOTT.DENTON@HOLLYFRONTIER.COM,12.2,2,5,305.4,Fac Spec,Fac Spec,Fac Spec,Fac Spec,2014,2014,2014,2014,0.2,6DigitNAICS,,324110,324,3241,32411,324110,,,,,,2911,,20784324,,160.8379658,23009,51829.16855,,TRUE,TRUE,TRUE,,
74107SNRFN1700S,46700,1.1E+11,36.13914,-96.02544,0,14,-3,1795,FRS,2019,,,HOLLYFRONTIER TULSA REFINING WEST FACILITY,1700 S UNION,TULSA,TULSA,OK,74107,74107,40143,40,NA,8965808,HOLLYFRONTIER CORP,HOLLYFRONTIER CORP,6,C,,JENNIFER SANCHEZ,9185881167,,JENNIFER.SANCHEZ@HOLLYFRONTIER.COM,34.1,5.2,1.6,478.7,Fac Spec,Fac Spec,Fac Spec,Fac Spec,2014,2014,2014,2014,0.2,6DigitNAICS,,324110,324,3241,32411,324110,,,,,,2911,1.11101E+13,369211,Outfall,320.7966952,53908,11741.15217,,TRUE,TRUE,TRUE,,
77017LYNDL12000,48974,1.10058E+11,29.7125,-95.235833,0,14,91,911,FRS,2019,,,HOUSTON REFINING LP,12000 LAWNDALE ST,HOUSTON,HARRIS,TX,77017,77017,48201,48,806322210,181843095,LYONDELLBASELL INDUSTRIES,LYONDELLBASELL INDUSTRIES,6,C,,ROEL MUNOZ,7133214111,,ROEL.MUNOZ@LYONDELLBASELL.COM,35.1,7.7,1.8,314.3,Fac Spec,Fac Spec,Fac Spec,Fac Spec,2014,2014,2014,2014,0.2,6DigitNAICS,,324110,324,3241,32411,324110,325110,,,,,2911,,1440537,,837.1319553,12918,8586.368587,,TRUE,TRUE,TRUE,,
74107SNCLR902W2,46699,1.1E+11,36.12266,-96.00048,0,14,0,1793,FRS,2019,,,HOLLYFRONTIER TULSA REFINING LLC EAST FACILITY,902 W 25TH ST,TULSA,TULSA,OK,74107,74107,40143,40,NA,8965808,HOLLYFRONTIER CORP,HOLLYFRONTIER CORP,6,C,,JENNIFER SANCHEZ,9185881167,,JENNIFER.SANCHEZ@HOLLYFRONTIER.COM,23.8,3.5,2,852.6,Fac Spec,Fac Spec,Fac Spec,Fac Spec,2014,2014,2014,2014,0.2,6DigitNAICS,,324110,324,3241,32411,324110,,,,,,2911,,368123,,1072.402692,53908,9419.69866,,TRUE,TRUE,TRUE,,
96707CHVRN91480,59057,1.1E+11,21.309854,-158.111997,0,34,-70,102,FRS,2019,,,IES DOWNSTREAM LLC - KAPOLEI REFINERY,91-480 MALAKOLE ST,KAPOLEI,HONOLULU,HI,96707,96707,15003,15,NA,80382788,IES DOWNSTREAM LLC,IES DOWNSTREAM LLC,9,C,,GAIL GODENZI,8086825711,,GAIL.GODENZI@ISLANDENERGYSERVICES.COM,30.4,18.5,1.4,498.4,Fac Spec,Fac Spec,Fac Spec,Fac Spec,2014,2014,2014,2014,0.2,6DigitNAICS,,324110,324,3241,32411,324110,325180,,,,,2911,,800007599,,1362.297021,22521,20361.87894,,TRUE,TRUE,,,
70669CNCLKOLDSP,44936,1.10001E+11,30.242155,-93.274386,0,14,323,988,FRS,2019,,,PHILLIPS 66 LAKE CHARLES REFINERY,2200 OLD SPANISH TRAIL,WESTLAKE,CALCASIEU PARISH,LA,70669,70669,22019,22,78378508,78378508,PHILLIPS 66 CO,PHILLIPS 66,6,C,,MEGAN HARTMAN,3374914443,,MEGAN.M.HARTMAN@P66.COM,18.3,2.8,1.8,999.8,Fac Spec,Fac Spec,Fac Spec,Fac Spec,2014,2014,2014,2014,0.2,6DigitNAICS,,324110,324,3241,32411,324110,,,,,,2911,8.08021E+12,3710370,Outfall,57.58996589,3937,14969.91092,,TRUE,TRUE,,,
67337FRMLNNORTH,43808,1.10014E+11,37.047556,-95.606106,0,14,43,1921,FRS,2019,,,COFFEYVILLE RESOURCES REFINING & MARKETING,400 N LINDEN,COFFEYVILLE,MONTGOMERY,KS,67337,67337,20125,20,142405666,142405666,CVR ENERGY INC,CVR ENERGY INC,7,C,,JOHN DITMORE,6202514000,,JDDITMORE@CVRENERGY.COM,59.4,6.1,2.3,434.8,Fac Spec,Fac Spec,Fac Spec,Fac Spec,2014,2014,2014,2014,0.2,6DigitNAICS,,324110,324,3241,32411,324110,,,,,,2911,,21797179,,900.1016998,93967,5999.812579,,TRUE,TRUE,TRUE,,
77640FNLNDHIGHW,50032,1.10001E+11,29.974381,-93.883892,0,14,252,949,FRS,2019,,,TOTAL PETROCHEMICALS & REFINING USA INC-PORT ARTHUR REFI,7600 32ND ST,PORT ARTHUR,JEFFERSON,TX,77642,77642,48245,48,NA,1329077,TOTAL HOLDINGS USA INC,TOTAL HOLDINGS USA INC,6,C,,ELIZABETH CHAPMON,4099850138,,ELIZABETH.CHAPMON@TOTAL.COM,45.7,1.5,1.2,477.6,Fac Spec,Fac Spec,Fac Spec,Fac Spec,2014,2014,2014,2014,0.2,6DigitNAICS,,324110,324,3241,32411,324110,,,,,,2911,1.202E+13,1115821,Outfall,88.18513295,12917,13106.29116,,TRUE,TRUE,,,
98248RCCHR4519G,60308,1.1E+11,48.8864,-122.7353,0,14,-2418,3893,FRS,2019,,,BP CHERRY POINT REFINERY,4519 GRANDVIEW RD,BLAINE,WHATCOM,WA,98230,98230,53073,53,135609048,39596507,BP PRODUCTS NA INC,BP AMERICA INC,10,C,,PAMELA BRADY,3603711500,,PAMELA.BRADY@BP.COM,21.3,5.6,3.7,474.3,Fac Spec,Fac Spec,Fac Spec,Fac Spec,2014,2014,2014,2014,0.2,6DigitNAICS,,324110,324,3241,32411,324110,,,,,,2911,1.711E+13,24534514,Outfall,608.3793704,24217,18201.75362,,TRUE,TRUE,TRUE,,
98221SHLLLWESTM,60256,1.10001E+11,48.489534,-122.564292,0,14,-2417,3836,FRS,2019,,,TESORO REFINING & MARKETING CO LLC,W MARCH POINT RD,ANACORTES,SKAGIT,WA,98221,98221,53057,53,29759037,968393996,MARATHON PETROLEUM CORP,MARATHON PETROLEUM CORP,10,C,,MATTHEW GILL,3602939149,,MATTHEW.P.GILL@ANDEAVOR.COM,38.4,6.5,3,465.9,Fac Spec,Fac Spec,Fac Spec,Fac Spec,2014,2014,2014,2014,0.2,6DigitNAICS,,324110,324,3241,32411,324110,,,,,,2911,1.711E+13,24534602,Outfall,985.7997544,94276,33766.14955,,TRUE,TRUE,TRUE,,
77701BMNTREASTE,50084,1.10042E+11,30.065833,-94.071388,0,14,229,961,FRS,2019,,,EXXONMOBIL OIL BEAUMONT REFINERY (PART),E END OF BURT ST,BEAUMONT,JEFFERSON,TX,77701,77701,48245,48,556875821,1213214,EXXON MOBIL CORP,EXXON MOBIL CORP,6,C,,KRISTY MCCARTY,4092403155,,KRSTY.M.MCCARTY@EXXONMOBIL.COM,52.3,0.1,0.9,699.8,Fac Spec,Fac Spec,Fac Spec,Fac Spec,2014,2014,2014,2014,0.2,6DigitNAICS,,324110,324,3241,32411,324110,324191,,,,,2911,1.202E+13,1114377,Outfall,676.7392342,12917,13903.99101,,TRUE,TRUE,TRUE,,
79721FNLNDIS20E,51067,1.10013E+11,32.269104,-101.417673,0,14,-627,1279,FRS,2019,,,ALON USA-BIG SPRING REFINERY,IH 20 AT REFINERY RD,BIG SPRING,HOWARD,TX,79720,79720,48227,48,806625757,NA,ALON USA LP,DELEK US HOLDINGS INC,6,C,,CHAD STEWART,4322639276,,CHAD.STEWART@DELEKUS.COM,16.6,1.5,1.1,302.6,Fac Spec,Fac Spec,Fac Spec,Fac Spec,2014,2014,2014,2014,0.2,6DigitNAICS,,324110,324,3241,32411,324110,,,,,,2911,1.208E+13,5714063,Outfall,1006.563612,23023,80342.36886,,TRUE,TRUE,TRUE,,
79086DMNDSSTARR,50872,1.1E+11,35.951944,-101.873889,0,14,-648,1790,FRS,2019,,,DIAMOND SHAMROCK REFINING CO LP,6701 FM 119,SUNRAY,MOORE,TX,79086,79086,48341,48,71667422,82686916,VALERO ENERGY CORP,VALERO ENERGY CORP,6,C,,CHRIS CROMEENS,8069351353,,CHRIS.CROMEENS@VALERO.COM,24.7,2.8,1.3,437.9,Fac Spec,Fac Spec,Fac Spec,Fac Spec,2014,2014,2014,2014,0.2,6DigitNAICS,,324110,324,3241,32411,324110,,,,,,2911,1.11001E+13,13841055,Outfall,111.6613075,3024,51846.15497,,TRUE,TRUE,TRUE,,
70037LLNCRHIGHW,44483,1.10064E+11,29.68,-89.980833,0,14,719,929,FRS,2019,,,PHILLIPS 66  - ALLIANCE REFINERY,15551 HIGHWAY 23,BELLE CHASSE,PLAQUEMINES PARISH,LA,70037,70037,22075,22,39110911,78378508,PHILLIPS 66,PHILLIPS 66,6,C,,TRISTAN BABIN,5046563987,,TRISTAN.C.BABIN@P66.COM,23.3,5.3,1.8,477.6,Fac Spec,Fac Spec,Fac Spec,Fac Spec,2014,2014,2014,2014,0.2,6DigitNAICS,,324110,324,3241,32411,324110,,,,,,2911,8.0901E+12,22798751,Outfall,352.0670843,53917,39406.3766,,TRUE,TRUE,TRUE,,
94553SHLLL3485P,57909,1.1E+11,38.016594,-122.115392,0,14,-2769,2438,FRS,2019,,,SHELL OIL PRODUCTS US-MARTINEZ REFINERY,3485 PACHECO BLVD,MARTINEZ,CONTRA COSTA,CA,94553,94553,6013,6,963573175,8090938,SHELL OIL CO,SHELL OIL CO,9,C,,ANN NOTARANGELO,9253133462,,ANN.NOTARANGELO@SHELL.COM,21.3,15.4,0.6,588.7,Fac Spec,Fac Spec,Fac Spec,Fac Spec,2014,2014,2014,2014,0.2,6DigitNAICS,,324110,324,3241,32411,324110,325180,325199,424710,,,2911,1.805E+13,948050105,Outfall,180.3178103,23254,6348.674024,,TRUE,TRUE,TRUE,,
70805XXNBT4050S,45074,1.10044E+11,30.484917,-91.17392,0,14,571,1031,FRS,2019,,,EXXONMOBIL BATON ROUGE REFINERY (PART),4045 SCENIC HWY,BATON ROUGE,EAST BATON ROUGE PARISH,LA,70805,70805,22033,22,62662887,1213214,EXXON MOBIL CORP,EXXON MOBIL CORP,6,C,,STEPHANIE CARGILE,2255405244,,STEPHANIE.K.CARGILE@EXXONMOBIL.COM,52.9,20.5,4.2,338.7,Fac Spec,Fac Spec,Fac Spec,Fac Spec,2014,2014,2014,2014,0.2,6DigitNAICS,,324110,324,3241,32411,324110,,,,,,2911,8.0701E+12,19088319,Outfall,384.061365,13976,84091.90671,,TRUE,TRUE,TRUE,,
98248MBLLC3901U,60306,1.1E+11,48.830142,-122.692114,0,14,-2416,3884,FRS,2019,,,PHILLIPS 66 FERNDALE REFINERY,3901 UNICK RD,FERNDALE,WHATCOM,WA,98248,98248,53073,53,606808392,78378508,PHILLIPS 66 CO,PHILLIPS 66,10,C,,TIM JOHNSON,3603848368,,TIM.D.JOHNSON@P66.COM,39.6,11.5,1.8,656.5,Fac Spec,Fac Spec,Fac Spec,Fac Spec,2014,2014,2014,2014,0.2,6DigitNAICS,,324110,324,3241,32411,324110,,,,,,2911,1.711E+13,24534512,Outfall,242.8786599,24217,12532.63851,,TRUE,TRUE,TRUE,,
84116CHVRN2351N,52530,1.1E+11,40.8249,-111.9238,0,14,-1637,2581,FRS,2019,,,CHEVRON PRODUCTS CO - SALT LAKE REFINERY,2351 NORTH 1100 WEST,SALT LAKE CITY,SALT LAKE,UT,84116,84116,49035,49,NA,1382555,CHEVRON CORP,CHEVRON CORP,8,C,,BLAIR BLACKWELL,8015397337,,BLAIR.BLACKWELL@CHEVRON.COM,22.6,1.2,0.6,295.4,Fac Spec,Fac Spec,Fac Spec,Fac Spec,2014,2014,2014,2014,0.2,6DigitNAICS,,324110,324,3241,32411,324110,424710,,,,,2911,1.60202E+13,10390290,Outfall,655.0086157,24127,5154.592271,,TRUE,TRUE,TRUE,,
77590MRTHNFOOTO,49978,1.10057E+11,29.379167,-94.909444,0,14,131,866,FRS,2019,,,MARATHON PETROLEUM CO LP (PART),502 10TH ST S,TEXAS CITY,GALVESTON,TX,77590,77590,48167,48,8079501,968393996,MARATHON PETROLEUM CORP,MARATHON PETROLEUM CORP,6,C,,LAVELLE EDMONDSON,4099437304,,LEDMONDSON@MARATHONPETROLEUM.COM,36.6,0,0.9,552.6,Fac Spec,Fac Spec,Fac Spec,Fac Spec,2014,2014,2014,2014,0.2,6DigitNAICS,,324110,324,3241,32411,324110,221112,,,,,2911,-1,-1,Manual,1737.440481,12923,13569.62941,,TRUE,TRUE,TRUE,,
84103MCLCM474WE,52462,1.1E+11,40.7889,-111.90441,0,14,-1636,2576,FRS,2019,,,TESORO REFINING & MARKETING COMPANY LLC - SLC,474 W 900 N,SALT LAKE CITY,SALT LAKE,UT,84103,84103,49035,49,29759037,8133480,TESORO CORP,MARATHON PETROLEUM CORP,8,C,,MICHELLE D BUJDOSO,8013662036,,MICHELLE.D.BUJDOSO@ANDEAVOR.COM,30.5,4.3,1.6,433.1,Fac Spec,Fac Spec,Fac Spec,Fac Spec,2014,2014,2014,2014,0.2,6DigitNAICS,,324110,324,3241,32411,324110,424710,,,,,2911,,10389370,,1822.051406,24127,3893.959672,,,TRUE,TRUE,,
19061BPLCMPOSTR,10319,1.1E+11,39.829311,-75.401169,0,14,2140,2539,FRS,2019,,,MONROE ENERGY LLC-TRAINER REFINERY,4101 POST RD,TRAINER,DELAWARE,PA,19061,19061,42045,42,78522170,6924872,DELTA AIR LINES INC,DELTA AIR LINES INC,3,C,,MATTHEW TORELL,6103648399,,MATT.TORELL@MONROE-ENERGY.COM,53.6,8.1,3.6,505.4,Fac Spec,Fac Spec,Fac Spec,Fac Spec,2014,2014,2014,2014,0.2,6DigitNAICS,,324110,324,3241,32411,324110,,,,,,2911,2.0402E+12,4496368,Outfall,298.3288959,13739,14217.76109,,TRUE,TRUE,TRUE,,
77012HLLPT9701M,48931,1.1E+11,29.722274,-95.254401,0,14,89,912,FRS,2019,,,VALERO REFINING - TEXAS LP HOUSTON REFINERY,9701 MANCHESTER,HOUSTON,HARRIS,TX,77012,77012,48201,48,193281284,79391280,VALERO ENERGY CORP,VALERO ENERGY CORP,6,C,,MATTHEW LINDQUIST,7139233378,,MATT.LINDQUIST@VALERO.COM,68.6,7,4.3,341.5,Fac Spec,Fac Spec,Fac Spec,Fac Spec,2014,2014,2014,2014,0.2,6DigitNAICS,,324110,324,3241,32411,324110,,,,,,2911,1.20401E+13,1440539,Outfall,37.5815559,12918,8915.004296,,TRUE,TRUE,TRUE,,
70723TXCRFFOOTO,44970,1.10001E+11,30.10846,-90.89677,0,14,606,981,FRS,2019,,,CONVENT REFINERY,FOOT OF SUNSHINE BRIDGE- LA HW Y 44,CONVENT,ST JAMES PARISH,LA,70723,70723,22093,22,4284737,8090938,SHELL OIL PRODUCTS US,SHELL OIL CO,6,C,,RAYMOND WOODFORK,2254747079,,RAYMOND.WOODFORK@SHELL.COM,12.6,0.2,1.5,343,Fac Spec,Fac Spec,Fac Spec,Fac Spec,2014,2014,2014,2014,0.2,6DigitNAICS,,324110,324,3241,32411,324110,,,,,,2911,8.0701E+12,19086177,Outfall,268.2926327,12916,63797.40291,,TRUE,TRUE,TRUE,,
58554MCLCMNORTH,38533,1.10025E+11,46.85055,-100.88083,0,14,-461,3285,FRS,2019,,,TESORO MANDAN REFINERY,900 OLD RED TRL NE,MANDAN,MORTON,ND,58554,58554,38059,38,135424575,968393996,MARATHON PETROLEUM CORP,MARATHON PETROLEUM CORP,8,C,,DAVID R. SCHOLLARS,7016672405,,DRSCHOLLARS@MARATHONPETROLEUM.COM,19,98.1,0.4,291.5,Fac Spec,Fac Spec,Fac Spec,Fac Spec,2014,2014,2014,2014,0.2,6DigitNAICS,,324110,324,3241,32411,324110,,,,,,2911,1.01301E+13,14523621,Outfall,279.1268667,24011,13617.98781,,TRUE,TRUE,TRUE,,
60439NCLCR135TH,39811,1.10001E+11,41.65697,-88.04444,0,14,811,2593,FRS,2019,,,CITGO PETROLEUM CORP LEMONT REFINERY,135TH ST & NEW AVE,LEMONT,WILL,IL,60439,60439,17197,17,858706773,858706773,CITGO HOLDING INC,CITGO HOLDING INC,5,C,,MICHAEL MEE,6302574474,,MMEE@CITGO.COM,9.1,0.1,0.1,289.8,Fac Spec,Fac Spec,Fac Spec,Fac Spec,2014,2014,2014,2014,0.2,6DigitNAICS,,324110,324,3241,32411,324110,,,,,,2911,7.12E+12,14787485,Outfall,11.85922076,14819,28194.40328,,TRUE,TRUE,TRUE,,
07036XXNXX1400P,4344,1.10041E+11,40.6365,-74.2199,0,14,2236,2675,FRS,2019,,,PHILLIPS 66 CO-BAYWAY REFINERY,1400 PARK AVE,LINDEN,UNION,NJ,7036,7036,34039,34,78378508,78378508,PHILLIPS 66 CO,PHILLIPS 66,2,C,,NANCY P. SADLON,9085236041,,NANCY.P.SADLON@P66.COM,20.2,4.8,1.6,412.6,Fac Spec,Fac Spec,Fac Spec,Fac Spec,2014,2014,2014,2014,0.2,6DigitNAICS,,324110,324,3241,32411,324110,,,,,,2911,2.0301E+12,6261544,Outfall,40.01948111,14734,8352.355216,,TRUE,TRUE,,,
59414MNTNR19001,38639,1.1E+11,47.523611,-111.294167,0,14,-1425,3480,FRS,2019,,,CALUMET MONTANA REFINING LLC,1900 10TH ST NE,GREAT FALLS,CASCADE,MT,59404,59404,30013,30,200160351,NA,CALUMET SPECIALTY PRODUCTS PARTNERS LP,CALUMET SPECIALTY PRODUCTS PARTNERS LP,8,C,,JOSEPH DAUNER,4064549887,,JOSEPH.DAUNER@CALUMETSPECIALTY.COM,22.6,4.4,1.4,435.9,Fac Spec,Fac Spec,Fac Spec,Fac Spec,2014,2014,2014,2014,0.2,6DigitNAICS,,324110,324,3241,32411,324110,,,,,,2911,,12435643,,415.5021042,24143,7093.9293,,TRUE,TRUE,TRUE,,
90748NCLLS1660W,55169,1.1E+11,33.774469,-118.290696,0,14,-2508,1764,FRS,2019,,,PHILLIPS 66 LOS ANGELES REFINERY WILMINGTON PLANT,1660 W ANAHEIM ST,WILMINGTON,LOS ANGELES,CA,90744,90744,6037,6,8237679,78378508,PHILLIPS 66 CO,PHILLIPS 66,9,C,,KENNETH DAMI,3109526028,,KENNETH.G.DAMI@P66.COM,22.6,4.4,1.4,435.9,Fac Spec,Fac Spec,Fac Spec,Fac Spec,2014,2014,2014,2014,0.2,6DigitNAICS,,324110,324,3241,32411,324110,,,,,,2911,,20366391,,1226.69241,23129,13834.53141,,TRUE,TRUE,TRUE,,
70075MRPHY2500E,44552,1.1E+11,29.930278,-89.943889,0,14,721,963,FRS,2019,,,VALERO REFINING - MERAUX LLC MERAUX REFINERY,2500 E ST BERNARD HWY,MERAUX,ST BERNARD PARISH,LA,70075,70075,22087,22,44436569,82686916,VALERO ENERGY CORP,VALERO ENERGY CORP,6,C,,TARYN ROGERS,5042714141,,,19.5,5.7,0.3,423.7,Fac Spec,Fac Spec,Fac Spec,Fac Spec,2014,2014,2014,2014,0.2,6DigitNAICS,,324110,324,3241,32411,324110,424710,,,,,2911,8.0901E+12,22798749,Outfall,143.3098665,53917,13418.30231,,TRUE,TRUE,,,
59101CNCBL401SO,38602,1.10044E+11,45.776389,-108.484444,0,14,-1196,3205,FRS,2019,,,PHILLIPS 66 CO BILLINGS REFINERY,401 S 23RD ST,BILLINGS,YELLOWSTONE,MT,59101,59101,30111,30,78378508,78378508,PHILLIPS 66 CO,PHILLIPS 66,8,C,,MARK COHN,4062552672,,MARK.J.COHN@P66.COM,48.5,6.2,1.4,580.4,Fac Spec,Fac Spec,Fac Spec,Fac Spec,2014,2014,2014,2014,0.2,6DigitNAICS,,324110,324,3241,32411,324110,,,,,,2911,,4342872,,267.0432243,24033,4589.919536,,TRUE,TRUE,TRUE,,
78408STHWS1700N,50520,1.10038E+11,27.804444,-97.424444,0,14,-174,651,FRS,2019,,,FLINT HILLS RESOURCES CORPUS CHRISTI LLC - EAST PLANT,1700 NUECES BAY BLVD,CORPUS CHRISTI,NUECES,TX,78407,78407,48355,48,48494033,6944334,KOCH INDUSTRIES INC,KOCH INDUSTRIES INC,6,C,,ANDY SAENZ,3612428772,,ANDY.SAENZ@KOCHPS.COM,12.8,0,0.9,297.6,Fac Spec,Fac Spec,Fac Spec,Fac Spec,2014,2014,2014,2014,0.2,6DigitNAICS,,324110,324,3241,32411,324110,,,,,,2911,-1,-1,Manual,1127.743464,12924,9655.406023,,TRUE,TRUE,TRUE,,
79905LPSRF6500T,51143,1.10042E+11,31.768889,-106.401667,0,14,-1209,1259,FRS,2019,,,WESTERN EL PASO REFINERY,6500 TROWBRIDGE DR,EL PASO,EL PASO,TX,79905,79905,48141,48,849237532,NA,WESTERN REFINING INC,MARATHON PETROLEUM CORP,6,C,,VJ SMITH,9157753319,,VJ.SMITH@ANDEAVOR.COM,18.6,2.2,1.1,365.4,Fac Spec,Fac Spec,Fac Spec,Fac Spec,2014,2014,2014,2014,0.2,6DigitNAICS,,324110,324,3241,32411,324110,,,,,,2911,,266029,,850.4140521,23044,5273.605149,,TRUE,TRUE,,,
77640CLRKR1801S,50031,1.1E+11,29.868333,-93.968333,0,14,242,934,FRS,2019,,,PREMCOR REFINING GROUP INC PORT ARTHUR,1801 S GULFWAY DR,PORT ARTHUR,JEFFERSON,TX,77640,77640,48245,48,199623414,43652424,VALERO ENERGY CORP,VALERO ENERGY CORP,6,C,,JEFF HUDE,4099851591,,JEFF.HUDE@VALERO.COM,49.1,15.2,2.4,610.4,Fac Spec,Fac Spec,Fac Spec,Fac Spec,2014,2014,2014,2014,0.2,6DigitNAICS,,324110,324,3241,32411,324110,,,,,,2911,1.20402E+13,1477577,Outfall,83.47326034,12917,10220.90532,,TRUE,TRUE,TRUE,,
71018KRRMCLA7SO,45114,1.10001E+11,32.80155,-93.410743,0,14,298,1339,FRS,2019,,,CALUMET COTTON VALLEY REFINING LLC CALUMET COTTON VALLEY,1756 OLD HWY 7,COTTON VALLEY,WEBSTER PARISH,LA,71018,71018,22119,22,39049408,NA,CALUMET REFINING LLC,CALUMET REFINING LLC,6,C,,BRIAN MARCINKUS,3188324236,,BRIAN.MARCINKUS@CALUMETSPECIALTY.COM,7.6,0.3,0.1,298.1,Fac Spec,Fac Spec,Fac Spec,Fac Spec,2014,2014,2014,2014,0.2,6DigitNAICS,,324110,324,3241,32411,324110,,,,,,2911,1.11402E+13,19935415,Outfall,757.486253,53905,42648.01867,,TRUE,TRUE,,,
98221PGTSN600ST,60255,1.10008E+11,48.472836,-122.560194,0,14,-2418,3834,FRS,2019,,,SHELL OIL PRODUCTS US - PUGET SOUND REFINERY,8505 SOUTH TEXAS RD,ANACORTES,SKAGIT,WA,98221,98221,53057,53,9276197,131489817,SHELL OIL CO,SHELL OIL CO,10,C,,SHIRLEY YAP,3602930800,,SHIRLEY.YAP@SHELL.COM,24.4,0.1,2.7,477.6,Fac Spec,Fac Spec,Fac Spec,Fac Spec,2014,2014,2014,2014,0.2,6DigitNAICS,,324110,324,3241,32411,324110,,,,,,2911,,24534602,,869.3462723,94276,34318.31153,,TRUE,TRUE,TRUE,,
78071DMNDS301LE,50259,1.1E+11,28.456667,-98.190277,0,14,-265,742,FRS,2019,,,VALERO THREE RIVERS REFINERY,301 LEROY ST,THREE RIVERS,LIVE OAK,TX,78071,78071,48297,48,948931837,82686916,VALERO ENERGY CORP,VALERO ENERGY CORP,6,C,,ELAINE LOPEZ,3617868053,,ELAINE.LOPEZ@VALERO.COM,26.4,4,0.9,422,Fac Spec,Fac Spec,Fac Spec,Fac Spec,2014,2014,2014,2014,0.2,6DigitNAICS,,324110,324,3241,32411,324110,,,,,,2911,1.21101E+13,10664258,Outfall,202.5349479,12932,81173.95654,,TRUE,TRUE,,,
59101XXNBL700EX,38605,1.1E+11,45.813904,-108.433295,0,14,-1191,3209,FRS,2019,,,EXXONMOBIL BILLINGS REFINERY,700 EXXONMOBIL RD,BILLINGS,YELLOWSTONE,MT,59101,59101,30111,30,10380574,1213214,EXXON MOBIL CORP,EXXON MOBIL CORP,8,C,,DAN CARTER,4066575249,,DAN.L.CARTER@EXXONMOBIL.COM,59.4,12.8,1.8,497,Fac Spec,Fac Spec,Fac Spec,Fac Spec,2014,2014,2014,2014,0.2,6DigitNAICS,,324110,324,3241,32411,324110,424710,,,,,2911,1.007E+13,7198055,Manual,727.5499324,24033,7881.399193,,TRUE,TRUE,,,
99611TSRLSMILE2,60898,1.10017E+11,60.683603,-151.367204,0,24,177,1471,FRS,2019,,,TESORO ALASKA - KENAI REFINERY,3600 KENAI SPUR HWY,KENAI,KENAI PENINSULA BOROUGH,AK,99611,99611,2122,2,NA,968393996,MARATHON PETROLEUM CORP,MARATHON PETROLEUM CORP,10,C,,MICHAEL HARPER,9077763599,,MDHARPER@MARATHONPETROLEUM.COM,16.3,2.6,0.9,370.6,Fac Spec,Fac Spec,Fac Spec,Fac Spec,2014,2014,2014,2014,0.2,6DigitNAICS,,324110,324,3241,32411,324110,,,,,,2911,,,,,26523,13736.56658,,TRUE,TRUE,,,
84054BGWST333WE,52355,1.1E+11,40.838386,-111.921443,0,14,-1636,2583,FRS,2019,,,BIG WEST OIL LLC,333 W CENTER ST,NORTH SALT LAKE,DAVIS,UT,84054,84054,49011,49,45267002,45267002,FJ MANAGEMENT INC.,FJ MANAGEMENT INC,8,C,,BEAU STANDER,8012967828,,BEAU.STANDER@BIGWESTOIL.COM,53.6,4.3,1.4,672,Fac Spec,Fac Spec,Fac Spec,Fac Spec,2014,2014,2014,2014,0.2,6DigitNAICS,,324110,324,3241,32411,324110,,,,,,2911,,10389264,,753.79858,24127,6610.965681,,,TRUE,,,
87301GNTRFROUTE,53683,1.10011E+11,35.490278,-108.425,0,14,-1376,1796,FRS,2019,,,WESTERN REFINING SOUTHWEST INC-GALLUP REFINERY,92 GIANT CROSSING ROAD,GALLUP,MCKINLEY,NM,87301,87301,35031,35,606287308,968393996,MARATHON PETROLEUM CORP,MARATHON PETROLEUM CORP,6,C,,BRIAN VALENZUELA ALCANTAR,5057269743,,BVALENZUELAALCANTAR@MARATHONPETROLEUM.COM,13.7,24,0.4,560.9,Fac Spec,Fac Spec,Fac Spec,Fac Spec,2014,2014,2014,2014,0.2,6DigitNAICS,,324110,324,3241,32411,324110,,,,,,2911,,20565769,,475.0773318,23081,32542.51201,,,TRUE,,,
55164KCHRFPOBOX,37254,1.1E+11,44.7684,-93.0406,0,14,289,2992,FRS,2019,,,FLINT HILLS RESOURCES PINE BEND LLC,13775 CLARK RD,ROSEMOUNT,DAKOTA,MN,55068,55068,27037,27,962542465,6944334,KOCH INDUSTRIES INC,KOCH INDUSTRIES INC,5,C,,JAKE REINT,6514381331,,JAKE.REINT@FHR.COM,45.7,9.1,3.1,410.9,Fac Spec,Fac Spec,Fac Spec,Fac Spec,2014,2014,2014,2014,0.2,6DigitNAICS,,324110,324,3241,32411,324110,,,,,,2911,7.01021E+12,1104294,Outfall,444.0851202,14927,17978.52762,,TRUE,TRUE,TRUE,,
70143TNNCL500WE,44650,1.10046E+11,29.934296,-89.972191,0,14,717,964,FRS,2019,,,CHALMETTE REFINING LLC,500 W ST BERNARD HWY,CHALMETTE,ST BERNARD PARISH,LA,70043,70043,22087,22,799963616,,NA,PBF ENERGY INC,6,C,,ELIZABETH ELLISON-FROST,5042811355,,ELIZABETH.ELLISON-FROST@PBFENERGY.COM,35.2,6.5,1.3,315.1,Fac Spec,Fac Spec,Fac Spec,Fac Spec,2014,2014,2014,2014,0.2,6DigitNAICS,,324110,324,3241,32411,324110,325110,424710,,,,2911,8.0901E+12,22814607,Outfall,221.5790542,53917,11793.37945,,TRUE,TRUE,TRUE,,
80022CNCDN5801B,51262,1.10033E+11,39.805556,-104.944444,0,14,-936,2347,FRS,2019,,,SUNCOR ENERGY COMMERCE CITY REFINERY,5801 BRIGHTON BLVD,COMMERCE CITY,ADAMS,CO,80022,80022,8001,8,241804681,241804681,SUNCOR ENERGY (USA) INC,SUNCOR ENERGY (USA) INC,8,C,,DONALD AUSTIN,3032865788,,DAUSTIN@SUNCOR.COM,59.4,19.8,1.2,524.8,Fac Spec,Fac Spec,Fac Spec,Fac Spec,2014,2014,2014,2014,0.2,6DigitNAICS,,324110,324,3241,32411,324110,424710,,,,,2911,1.019E+13,229709,Outfall,159.0738977,3017,24654.82378,,TRUE,TRUE,,,
70047TRNSM14902,44492,1.1E+11,29.985278,-90.392778,0,14,667,968,FRS,2019,,,VALERO REFINING - NEW ORLEANS LLC,14902 RIVER RD,NORCO,ST CHARLES PARISH,LA,70079,70079,22089,22,167266530,NA,VALERO ENERGY CORP,VALERO ENERGY CORP,6,C,,ANDRE MARQUETTE,9857645745,,ANDRE.MARQUETTE@VALERO.COM,61,17.5,4,344.3,Fac Spec,Fac Spec,Fac Spec,Fac Spec,2014,2014,2014,2014,0.2,6DigitNAICS,,324110,324,3241,32411,324110,,,,,,2911,,22799303,,707.7242409,12916,13753.68176,,TRUE,TRUE,,,
67042TXCRF1401S,43632,1.1E+11,37.794007,-96.87414,0,14,-94,2025,FRS,2019,,,HOLLYFRONTIER EL DORADO REFINING LLC,1401 S DOUGLAS RD,EL DORADO,BUTLER,KS,67042,67042,20015,20,199652181,8965808,HOLLYFRONTIER CORP,HOLLYFRONTIER CORP,7,C,,ANDREW BEARD,3163218478,,ANDREW.BEARD@HOLLYFRONTIER.COM,29.9,14.3,2.1,477,Fac Spec,Fac Spec,Fac Spec,Fac Spec,2014,2014,2014,2014,0.2,6DigitNAICS,,324110,324,3241,32411,324110,,,,,,2911,,20081554,,705.0621947,3974,30703.6604,,TRUE,TRUE,TRUE,,
02093GGRGT400GR,1501,1.10013E+11,42.02777,-71.35177,0,14,2474,2933,FRS,2019,,,AGGREGATE INDUSTRIES NORTHEAST REGION INC,400 GREEN ST,WRENTHAM,NORFOLK,MA,2093,2093,25021,25,NA,622258929,HOLCIM (US) INC,AGGREGATE INDUSTRIES MANAGEMENT INC,1,C,,STEPHANIE HERBSTER,7813074049,,STEPHANIE.HERBSTER@AGGREGATE-US.COM,13.1,26.2,1,410.9,Fac Spec,Fac Spec,Fac Spec,Fac Spec,2014,2014,2014,2014,0.43,6DigitNAICS,,324121,324,3241,32412,324121,212319,,,,,2951,,6125889,,1072.247445,54704,23334.12441,,,TRUE,,,
38113WNSCR2301C,23268,1.10002E+11,35.084088,-90.116254,0,14,656,1670,FRS,2019,,,OWENS CORNING ROOFING & ASPHALT LLC MEMPHIS TRUMBULL ASPHALT,2301 CHANNEL AVE,MEMPHIS,SHELBY,TN,38109,38109,47157,47,26020054,1317452,OWENS CORNING,OWENS CORNING,4,C,,TAMARA JACKSON-MITCHELL,9015213932,,TAMARA.JACKSONMITCHELL@OWENSCORNING.COM,6.2,4.6,0.4,295.4,Fac Spec,Fac Spec,Fac Spec,Fac Spec,2014,2014,2014,2014,0.43,6DigitNAICS,,324121,324,3241,32412,324121,,,,,,2952,,7474868,,1139.882743,53959,12114.64307,,,TRUE,,,
45015TRRYH8STAN,28091,1.1001E+11,39.34227,-84.51258,0,14,1208,2312,FRS,2019,,,TERRY ASPHALT MATERIALS INC,8 STANDEN DR,HAMILTON,BUTLER,OH,45015,45015,39017,39,958026044,NA,BARRETT INDUSTRIES CORP,BARRETT INDUSTRIES CORP,5,C,,ANDREW SIGAFOOS,5138746192,,ANDREW.SIGAFOOS@TERRYASPHALT.COM,10.3,12.8,1,386.5,Fac Spec,Fac Spec,Fac Spec,Fac Spec,2011,2011,2011,2011,0.43,6DigitNAICS,,324121,324,3241,32412,324121,,,,,,2951,,3885396,,335.5501063,53855,2641.724015,,,TRUE,,,
7702WVLRHS974CL,49082,1.10034E+11,29.732551,-95.256835,0,14,89,914,FRS,2019,,,VALERO HOUSTON ASPHALT TERMINAL,9704 CLINTON DR,HOUSTON,HARRIS,TX,77029,77029,48201,48,963555222,82686916,VALERO ENERGY CORP,VALERO ENERGY CORP,6,C,,JENNIFER BOND,2103454239,,JENNIFER.BOND@VALERO.COM,10.1,0,0,469.3,Fac Spec,Fac Spec,Fac Spec,Fac Spec,2014,2014,2014,2014,0.43,6DigitNAICS,,324121,324,3241,32412,324121,,,,,,,,1440539,,606.4460181,12918,9967.874042,,TRUE,TRUE,,,
35401BLCKW4601S,21027,1.10002E+11,33.20138,-87.59666,0,14,960,1432,FRS,2019,,,BLACK WARRIOR ROOFING,4601 STILLMAN BLVD,TUSCALOOSA,TUSCALOOSA,AL,35401,35401,1125,1,,NA,ABH ENTERPRISES INC,ABH ENTERPRISES INC,4,C,,RANDY HUGHES,2053456634,2236,RANDY@MSAROOF.COM,10.1,7.5,0.5,420.9,Fac Spec,Fac Spec,Fac Spec,Fac Spec,2014,2014,2014,2014,0.34,Default,,324122,324,3241,32412,324122,,,,,,2952,,18229923,,646.9383833,93806,2152.226346,,,TRUE,,,
26037KPPRSKOPPE,13004,1.10001E+11,40.339596,-80.606822,0,14,1594,2506,FRS,2019,,,KOPPERS FOLLANSBEE TAR PLANT,810 KOPPERS RD,FOLLANSBEE,BROOKE,WV,26037,26037,54009,54,4336749,196991582,KOPPERS INC,KOPPERS INC,3,C,,MR. ERIC SCIORILLI,3045275572,,SCIORILLIEA@KOPPERS.COM,25,2.2,3,560.9,Fac Spec,Fac Spec,Fac Spec,Fac Spec,2014,2014,2014,2014,0.2,6DigitNAICS,,324199,324,3241,32419,324199,325110,,,,,2865,5.0301E+12,3824211,Outfall,30.71774978,14894,18507.7475,,TRUE,TRUE,,,
70665VNTRC1920P,44932,1.10016E+11,30.147688,-93.335266,0,14,316,975,FRS,2019,,,RAIN CII CARBON LLC LAKE CHARLES CALCINING PLANT (LCCP),1920 PAK TANK RD,SULPHUR,CALCASIEU PARISH,LA,70665,70665,22019,22,198251886,198251886,RAIN CII CARBON LLC,RAIN CII CARBON LLC,6,C,,ROSS GARES,3374762911,,ROSS.GARES@RAINCARBON.COM,60.8,22.7,3.8,859.3,Fac Spec,Fac Spec,Fac Spec,Fac Spec,2014,2014,2014,2014,0.2,6DigitNAICS,,324199,324,3241,32419,324199,,,,,,2999,0,-1,Outfall,7845.994614,3937,11874.35864,,TRUE,TRUE,,,
14150TNWND3875R,7334,1.1E+11,42.983638,-78.92728,0,14,1700,2895,FRS,2019,,,TONAWANDA COKE CORP,3875 RIVER RD,TONAWANDA,ERIE,NY,14150,14150,36029,36,88413877,,NA,NA,2,C,,ROBERT KUBERKA,7168766222,233,RKUBERKA@TONAWANDACOKE.COM,65.5,4.4,2.5,477.3,Fac Spec,Fac Spec,Fac Spec,Fac Spec,2014,2014,2014,2014,0.2,6DigitNAICS,,324199,324,3241,32419,324199,,,,,,3312,,15568803,,1010.877362,4724,13792.57241,,,TRUE,,,
77983RCCRBHWY18,50227,1.10044E+11,28.51343,-96.794646,0,14,-96,747,FRS,2019,,,SEADRIFT COKE LP,8618 HWY 185 N,PORT LAVACA,CALHOUN,TX,77979,77979,48057,48,8237497,877176578,GRAFTECH INTERNATIONAL LTD,GRAFTECH INTERNATIONAL LTD,6,C,,DAVID CHILDS,3615514593,,DAVID.CHILDS@SEADRIFTCOKE.COM,30.2,0.3,0.8,556.8,Fac Spec,Fac Spec,Fac Spec,Fac Spec,2014,2014,2014,2014,0.2,6DigitNAICS,,324199,324,3241,32419,324199,,,,,,2999,,7864404,,701.8978637,12912,39282.01567,,TRUE,TRUE,,,
15062MNSSN345DO,7986,1.1E+11,40.161547,-79.883469,0,14,1672,2494,FRS,2019,,,ARCELORMITTAL MONESSEN LLC COKE PLANT,345 DONNER AVE,MONESSEN,WESTMORELAND,PA,15062,15062,42129,42,828813449,828813449,ARCELORMITTAL HOLDINGS II LLC,ARCELORMITTAL USA LLC,3,C,,DANIELLE SKOLNEKOVICH,7246841175,,DANIELLE.SKOLNEKOVICH@ARCELORMITTAL.COM,85.5,6,1.5,519.3,Fac Spec,Fac Spec,Fac Spec,Fac Spec,2014,2014,2014,2014,0.2,6DigitNAICS,,324199,324,3241,32419,324199,,,,,,3312,,3785957,,301.2830013,14762,21758.01391,,TRUE,TRUE,,,
15025SSCLR400ST,7937,1.10042E+11,40.305088,-79.876911,0,14,1669,2514,FRS,2019,,,USS-CLAIRTON PLANT,400 STATE ST MS 71,CLAIRTON,ALLEGHENY,PA,15025,15025,42003,42,4498010,29990699,US STEEL CORP,US STEEL CORP,3,C,,MEGHAN COX,4124336777,,MMCOX@USS.COM,57.9,17.7,2.7,542,Fac Spec,Fac Spec,Fac Spec,Fac Spec,2014,2014,2014,2014,0.2,6DigitNAICS,,324199,324,3241,32419,324199,,,,,,3312,5.02001E+12,3785877,Outfall,117.2675775,14762,6738.697676,,TRUE,TRUE,,,
44482LTVST2234M,27473,1.10013E+11,41.211242,-80.81682,0,14,1553,2621,FRS,2019,,,ARCELORMITTAL CLEVELAND LLC DBA ARCELORMITTAL WARREN,2234 MAIN AVE SW,WARREN,TRUMBULL,OH,44481,44481,39155,39,788162600,107970886,ARCELORMITTAL USA LLC,ARCELORMITTAL USA LLC,5,C,,MARY BETH HOLDFORD,2163948054,,MARYBETH.HOLDFORD@ARCELORMITTAL.COM,38.4,11.3,2.4,470.4,Fac Spec,Fac Spec,Fac Spec,Fac Spec,2014,2014,2014,2014,0.2,6DigitNAICS,,324199,324,3241,32419,324199,,,,,,3312,,13154255,,148.403673,14852,13249.26432,,TRUE,TRUE,,,
73753GRTLKRTE1B,46493,1.10007E+11,36.51873,-97.83689,0,14,-201,1850,FRS,2019,,,OXBOW CALCINING LLC,11826 N 30TH ST,KREMLIN,GARFIELD,OK,73753,73753,40047,40,808121987,190590760,OXBOW CARBON & MINERALS HOLDINGS INC,OXBOW CARBON & MINERALS HOLDINGS INC,6,C,NA,JONATHAN BARTLEY,5808742002,,JONATHAN.BARTLEY@OXBOW.COM,45.7,12.8,4.1,1255.4,Fac Spec,Fac Spec,Fac Spec,Fac Spec,2014,2014,2014,2014,0.2,6DigitNAICS,,324199,324,3241,32419,324199,,,,,,2999,,21002059,,739.5881335,13969,69867.67351,,,TRUE,,,
26037WHLNGROUTE,13006,1.10042E+11,40.34361,-80.60667,0,14,1593,2506,FRS,2019,,,MOUNTAIN STATE CARBON LLC,1851 MAIN ST,FOLLANSBEE,BROOKE,WV,26037,26037,54009,54,39061676,NA,AK STEEL HOLDING CORP,AK STEEL HOLDING CORP,3,C,,LISA JESTER,5134252510,,LISA.JESTER@AKSTEEL.COM,35.5,11.4,2,695.6,Fac Spec,Fac Spec,Fac Spec,Fac Spec,2014,2014,2014,2014,0.2,6DigitNAICS,,324199,324,3241,32419,324199,,,,,,3312,5.03011E+12,19453135,Outfall,541.7754613,14894,18948.92968,,TRUE,TRUE,,,
35217BCCKDRAILR,20958,1.1E+11,33.580769,-86.781281,0,14,1048,1493,FRS,2019,,,DRUMMOND CO INC ABC COKE DIV,ONE RAILROAD AVE,TARRANT,JEFFERSON,AL,35217,35217,1073,1,67103432,67103432,DRUMMOND CO INC,DRUMMOND CO INC,4,C,,JAY CORNELIUS,2058491342,,JCORNELIUS@ABCCOKE.COM,56.4,1.2,3.5,310.9,Fac Spec,Fac Spec,Fac Spec,Fac Spec,2014,2014,2014,2014,0.2,6DigitNAICS,,324199,324,3241,32419,324199,,,,,,3312,3.16011E+12,18566079,Outfall,704.8471379,13876,3277.582969,,TRUE,TRUE,,,
3947WRNCCR863LD,24289,1.10002E+11,31.1803,-89.386117,0,14,775,1139,FRS,2019,,,RAIN CII CARBON LLC-PURVIS CALCINING PLANT,863 OLD RICHBURG RD,PURVIS,LAMAR,MS,39475,39475,28073,28,198251886,198251886,RAIN CII CARBON LLC,RAIN CII CARBON LLC,4,C,,DEREK TAYLOR,5044346106,,DEREK.TAYLOR@RAINCARBON.COM,34.7,5.2,2.7,480.4,Fac Spec,Fac Spec,Fac Spec,Fac Spec,2014,2014,2014,2014,0.2,6DigitNAICS,,324199,324,3241,32419,324199,,,,,,,,18104364,,456.1831988,13833,15777.41516,,,TRUE,,,
15025RSTCH400ST,7936,1.1E+11,40.307,-79.8864,0,14,1668,2514,FRS,2019,,,KOPPERS INC CLAIRTON TAR PLANT,300 N STATE ST,CLAIRTON,ALLEGHENY,PA,15025,15025,42003,42,938682853,196991582,KOPPERS INC,KOPPERS INC,3,C,,JOHN IRVINE,4122272884,,IRVINEJK@KOPPERS.COM,5.5,1.9,0.2,294.3,Fac Spec,Fac Spec,Fac Spec,Fac Spec,2014,2014,2014,2014,0.2,6DigitNAICS,,324199,324,3241,32419,324199,,,,,,3312,,3785301,,368.9819105,14762,6131.355535,,TRUE,TRUE,,,
77631DPNTSFARMR,50022,1.10018E+11,30.054796,-93.753863,0,14,267,961,FRS,2019,,,DUPONT SABINE RIVER WORKS,FARM RD 1006,ORANGE,ORANGE,TX,77630,77630,48361,48,126040237,1315704,E I DU PONT DE NEMOURS & CO,DOWDUPONT INC,6,C,,TROY BEARDEN,4098866007,,TWBEARDEN@DOW.COM,27.1,4.1,0.8,499,Fac Spec,Fac Spec,Fac Spec,Fac Spec,2014,2014,2014,2014,0.25,6DigitNAICS,,325110,325,3251,32511,325110,325211,562211,,,,2869,1.201E+13,8332656,Outfall,204.8195359,12917,27889.80106,,TRUE,TRUE,TRUE,,
77465CHVRNSTATE,49557,1.10057E+11,29.070847,-95.750363,1,14,30,823,Manual,2015,GoogleEarth,,CHEVRON PHILLIPS CHEMICAL CO LP SWEENY COMPLEX,21441 LOOP 419,SWEENY,BRAZORIA,TX,77480,77480,48039,48,NA,152975665,CHEVRON PHILLIPS CHEMICAL CO LLC,CHEVRON PHILLIPS CHEMICAL CO LLC,6,C,,GLENN HEIL,9794915730,,HEILGS@CPCHEM.COM,38.9,0.1,1.1,810.9,Fac Spec,Fac Spec,Fac Spec,Fac Spec,2014,2014,2014,2014,0.25,6DigitNAICS,,325110,325,3251,32511,325110,,,,,,2869,,1612504,,905.7830548,12976,28355.81636,,,TRUE,,,
77522XXNCH3525D,49762,1.1E+11,29.756256,-95.011032,0,14,118,917,FRS,2019,,,EXXONMOBIL CHEMICAL CO BAYTOWN OLEFINS PLANT (PART),3525 DECKER DR,BAYTOWN,HARRIS,TX,77520,77520,48201,48,800765448,1213214,EXXON MOBIL CORP,EXXON MOBIL CORP,6,C,,CONNIE G.TILTON,3462597342,,CONNIE.G.TILTON@EXXONMOBIL.COM,38.1,3,3,482,Fac Spec,Fac Spec,Fac Spec,Fac Spec,2014,2014,2014,2014,0.25,6DigitNAICS,,325110,325,3251,32511,325110,,,,,,2869,1.20401E+13,1559736,Outfall,223.8444973,12918,28686.7016,,TRUE,TRUE,TRUE,,
77536SHLLLHIGHW,49820,1.10067E+11,29.722084,-95.127669,1,14,104,912,Manual,2018,Moved to centroid.,,SHELL CHEMICAL LP,5900 HWY 225 EAST,DEER PARK,HARRIS,TX,77536,77536,48201,48,618143986,131489817,SHELL PETROLEUM INC,SHELL OIL CO,6,C,,LAURA BRENNAN,7132461175,,LAURA.BRENNAN@SHELL.COM,10.3,1.1,0.9,360.9,Fac Spec,Fac Spec,Fac Spec,NAICS 4 Digit,2005,2005,2005,2014,0.25,6DigitNAICS,,325110,325,3251,32511,325110,,,,,,2821,1.20401E+13,1440521,Manual,1047.030427,12918,16946.49618,,TRUE,TRUE,TRUE,,
77656STHHMFM418,50071,1.1E+11,30.3985,-94.2296,0,14,210,1006,FRS,2019,,,SOUTH HAMPTON RESOURCES INC,7752 FM 418,SILSBEE,HARDIN,TX,77656,77656,48199,48,62120340,97302640,TEXAS OIL & CHEMICAL CO II,TEXAS OIL & CHEMICAL CO II,6,C,,JAMES HAWKINS,4093858300,,JHAWKINS@SOUTHHAMPTONR.COM,12.2,0,0.9,302.6,Fac Spec,Fac Spec,Fac Spec,Fac Spec,2014,2014,2014,2014,0.25,6DigitNAICS,,325110,325,3251,32511,325110,,,,,,2869,,1166431,,949.3924315,12917,53895.78958,,,TRUE,TRUE,,
70663WSTLK900HA,44924,1.10044E+11,30.179916,-93.359229,0,14,314,979,FRS,2019,,,WESTLAKE PETROCHEMICALS ETHYLENE,900 E HIGHWAY 108,SULPHUR,CALCASIEU PARISH,LA,70665,70665,22019,22,616815254,608366308,WESTLAKE CHEMICAL CORP,WESTLAKE CHEMICAL CORP,6,C,,JOE ANDREPONT,3375833116,,JANDREPONT@WESTLAKE.COM,11.9,7.3,1,317.9,Fac Spec,Fac Spec,Fac Spec,Fac Spec,2014,2014,2014,2014,0.25,6DigitNAICS,,325110,325,3251,32511,325110,325211,,,,,2869,8.08021E+12,3709796,Outfall,210.549664,3937,15361.28428,,TRUE,TRUE,,,
77704MBLCHGULFS,50100,1.1E+11,30.061002,-94.068815,0,14,230,961,FRS,2019,,,EXXONMOBIL OIL CORP CHEMICAL PLANT (PART),2775 GULF STATES RD,BEAUMONT,JEFFERSON,TX,77701,77701,48245,48,109860556,1213214,EXXON MOBIL CORP,EXXON MOBIL CORP,6,C,,KRISTY.M.MCCARTY,4092403155,,KRISTY.M.MCCARTY@EXXONMOBIL.COM,67.1,0.3,11.4,616.5,Fac Spec,Fac Spec,Fac Spec,Fac Spec,2014,2014,2014,2014,0.25,6DigitNAICS,,325110,325,3251,32511,325110,,,,,,2869,1.202E+13,1114377,Outfall,377.3086561,12917,13313.12674,,TRUE,TRUE,TRUE,,
